{"timeStamp": "2024-08-26", "timeScale": 14, "data": [{"deviceId": "E6FB7EF1D181962685502F09E12B40DBF0B0919E35830E9C019660873ED03715", "siteName": "\u81fa\u5357\u5e02\u5b89\u5357\u5340\u9752\u8349\u570b\u5c0f", "gps_lat": 23.076875, "gps_lon": 120.116702, "pm2.5": 0.0, "humidity": 100.0, "temperature": 27.455555555555556}, {"deviceId": "74DA38F7C64C", "siteName": "\u65b0\u5317\u5e02\u80b2\u5fb7\u570b\u5c0f(2018)", "gps_lat": 24.97, "gps_lon": 121.392, "pm2.5": 2.4285714285714284, "humidity": 100.0, "temperature": 30.368571428571425}, {"deviceId": "74DA38F7C648", "siteName": "\u5e02\u7acb\u9577\u5b89\u570b\u5c0f(2018)", "gps_lat": 25.045, "gps_lon": 121.533, "pm2.5": 19.5, "humidity": 77.5, "temperature": 30.241000000000003}, {"deviceId": "74DA38F7C63C", "siteName": "\u65b0\u5317\u5e02\u6587\u6797\u570b\u5c0f(2018)", "gps_lat": 24.998, "gps_lon": 121.425, "pm2.5": 22.8, "humidity": 100.0, "temperature": 29.658000000000005}, {"deviceId": "74DA38F7C634", "siteName": "\u65b0\u5317\u5e02\u4e8c\u6a4b\u570b\u5c0f(2018)", "gps_lat": 24.941, "gps_lon": 121.336, "pm2.5": 15.9, "humidity": 71.0, "temperature": 30.849000000000007}, {"deviceId": "74DA38F7C616", "siteName": "\u5e02\u7acb\u4fe1\u7fa9\u570b\u5c0f(2018)", "gps_lat": 25.031, "gps_lon": 121.563, "pm2.5": 19.8, "humidity": 100.0, "temperature": 29.755000000000003}, {"deviceId": "74DA38F7C610", "siteName": "\u5e02\u7acb\u4e09\u6c11\u570b\u5c0f(2018)", "gps_lat": 25.063, "gps_lon": 121.564, "pm2.5": 23.4, "humidity": 98.1, "temperature": 30.077000000000005}, {"deviceId": "74DA38F7C60C", "siteName": "\u5e02\u7acb\u5065\u5eb7\u570b\u5c0f(2018)", "gps_lat": 25.056, "gps_lon": 121.562, "pm2.5": 18.6, "humidity": 87.1, "temperature": 29.830000000000002}, {"deviceId": "74DA38F7C600", "siteName": "\u5e02\u7acb\u4e09\u6c11\u570b\u4e2d(2018)", "gps_lat": 25.07, "gps_lon": 121.586, "pm2.5": 12.3, "humidity": 38.2, "temperature": 24.396000000000004}, {"deviceId": "74DA38F7C5E4", "siteName": "\u65b0\u5317\u5e02\u9326\u548c\u9ad8\u4e2d(2018)", "gps_lat": 24.991, "gps_lon": 121.491, "pm2.5": 152.1818181818182, "humidity": 100.0, "temperature": 29.320000000000004}, {"deviceId": "74DA38F7C5D0", "siteName": "\u65b0\u5317\u5e02\u745e\u4ead\u570b\u5c0f(2018)", "gps_lat": 25.102, "gps_lon": 121.777, "pm2.5": 0.0, "humidity": 100.0, "temperature": 26.38666666666667}, {"deviceId": "74DA38F7C5CE", "siteName": "\u65b0\u5317\u5e02\u6c50\u6b62\u570b\u4e2d(2018)", "gps_lat": 25.066, "gps_lon": 121.656, "pm2.5": 23.7, "humidity": 93.8, "temperature": 28.419000000000004}, {"deviceId": "74DA38F7C5BE", "siteName": "\u5e02\u7acb\u58eb\u6797\u570b\u4e2d(2018)", "gps_lat": 25.092, "gps_lon": 121.523, "pm2.5": 24.5, "humidity": 92.1, "temperature": 29.577000000000005}, {"deviceId": "74DA38F7C5AA", "siteName": "\u65b0\u5317\u5e02\u7a4d\u7a57\u570b\u4e2d(2018)", "gps_lat": 25.0, "gps_lon": 121.479, "pm2.5": 0.2222222222222222, "humidity": 100.0, "temperature": 28.71888888888889}, {"deviceId": "74DA38F7C5A0", "siteName": "\u5e02\u7acb\u660e\u5fb7\u570b\u4e2d(2018)", "gps_lat": 25.107, "gps_lon": 121.518, "pm2.5": 15.8, "humidity": 93.7, "temperature": 30.099000000000007}, {"deviceId": "74DA38F7C59C", "siteName": "\u5e02\u7acb\u798f\u5b89\u570b\u4e2d(2018)", "gps_lat": 25.103, "gps_lon": 121.487, "pm2.5": 26.8, "humidity": 83.0, "temperature": 30.627000000000002}, {"deviceId": "74DA38F7C592", "siteName": "\u65b0\u5317\u5e02\u91d1\u5c71\u9ad8\u4e2d(2018)", "gps_lat": 25.224, "gps_lon": 121.637, "pm2.5": 0.14285714285714285, "humidity": 0.0, "temperature": -4.0}, {"deviceId": "74DA38F7C57C", "siteName": "\u65b0\u5317\u5e02\u8c50\u5e74\u570b\u5c0f(2018)", "gps_lat": 25.03, "gps_lon": 121.443, "pm2.5": 21.0, "humidity": 100.0, "temperature": 30.541000000000004}, {"deviceId": "74DA38F7C570", "siteName": "\u65b0\u5317\u5e02\u4e2d\u89d2\u570b\u5c0f(2018)", "gps_lat": 25.239, "gps_lon": 121.63, "pm2.5": 0.1111111111111111, "humidity": 100.0, "temperature": 28.508888888888887}, {"deviceId": "74DA38F7C566", "siteName": "\u65b0\u5317\u5e02\u69ae\u5bcc\u570b\u5c0f(2018)", "gps_lat": 25.051, "gps_lon": 121.448, "pm2.5": 0.0, "humidity": 100.0, "temperature": 30.33888888888889}, {"deviceId": "74DA38F7C560", "siteName": "\u65b0\u5317\u5e02\u9577\u5b89\u570b\u5c0f(2018)", "gps_lat": 25.079, "gps_lon": 121.671, "pm2.5": 8.9, "humidity": 100.0, "temperature": 29.244}, {"deviceId": "74DA38F7C55C", "siteName": "\u65b0\u5317\u5e02\u6c50\u6b62\u570b\u5c0f(2018)", "gps_lat": 25.066, "gps_lon": 121.655, "pm2.5": 25.555555555555557, "humidity": 100.0, "temperature": 29.101111111111113}, {"deviceId": "74DA38F7C556", "siteName": "\u65b0\u5317\u5e02\u982d\u524d\u570b\u5c0f(2018)", "gps_lat": 25.053, "gps_lon": 121.465, "pm2.5": 24.9, "humidity": 95.8, "temperature": 30.532999999999998}, {"deviceId": "74DA38F7C53C", "siteName": "\u65b0\u5317\u5e02\u745e\u82b3\u9ad8\u5de5(2018)", "gps_lat": 25.11, "gps_lon": 121.804, "pm2.5": 0.0, "humidity": 100.0, "temperature": 27.935000000000002}, {"deviceId": "74DA38F7C532", "siteName": "\u65b0\u5317\u5e02\u5149\u8208\u570b\u5c0f(2018)", "gps_lat": 25.059, "gps_lon": 121.499, "pm2.5": 19.8, "humidity": 99.8, "temperature": 29.922000000000004}, {"deviceId": "74DA38F7C52A", "siteName": "\u65b0\u5317\u5e02\u4e8c\u91cd\u570b\u5c0f(2018)", "gps_lat": 25.065, "gps_lon": 121.478, "pm2.5": 21.875, "humidity": 100.0, "temperature": 29.89875}, {"deviceId": "74DA38F7C524", "siteName": "\u5e02\u7acb\u8208\u9686\u570b\u5c0f(2018)", "gps_lat": 25.002, "gps_lon": 121.552, "pm2.5": 23.5, "humidity": 100.0, "temperature": 28.716}, {"deviceId": "74DA38F7C514", "siteName": "\u5e02\u7acb\u5efa\u6210\u570b\u4e2d(2018)", "gps_lat": 25.051, "gps_lon": 121.518, "pm2.5": 20.6, "humidity": 100.0, "temperature": 29.78}, {"deviceId": "74DA38F7C512", "siteName": "\u5e02\u7acb\u5fe0\u5b5d\u570b\u4e2d(2018)", "gps_lat": 25.051, "gps_lon": 121.507, "pm2.5": 27.0, "humidity": 100.0, "temperature": 30.019}, {"deviceId": "74DA38F7C506", "siteName": "\u5e02\u7acb\u666f\u8208\u570b\u4e2d(2018)", "gps_lat": 24.996, "gps_lon": 121.544, "pm2.5": 22.77777777777778, "humidity": 100.0, "temperature": 28.783333333333335}, {"deviceId": "74DA38F7C4DE", "siteName": "\u65b0\u5317\u5e02\u9dfa\u6c5f\u570b\u4e2d(2018)", "gps_lat": 25.09, "gps_lon": 121.462, "pm2.5": 26.2, "humidity": 100.0, "temperature": 29.772000000000002}, {"deviceId": "74DA38F7C4CC", "siteName": "\u65b0\u5317\u5e02\u5fa9\u8208\u570b\u5c0f(2018)", "gps_lat": 25.062, "gps_lon": 121.451, "pm2.5": 17.2, "humidity": 100.0, "temperature": 28.054000000000002}, {"deviceId": "74DA38F7C4C4", "siteName": "\u65b0\u5317\u5e02\u9f3b\u982d\u570b\u5c0f(2018)", "gps_lat": 25.12, "gps_lon": 121.919, "pm2.5": 15.6, "humidity": 69.2, "temperature": 30.219}, {"deviceId": "74DA38F7C49E", "siteName": "\u65b0\u5317\u5e02\u4e2d\u6b63\u570b\u4e2d(2018)", "gps_lat": 24.983, "gps_lon": 121.456, "pm2.5": 26.714285714285715, "humidity": 0.0, "temperature": -4.0}, {"deviceId": "74DA38F7C47E", "siteName": "\u65b0\u5317\u5e02\u540c\u69ae\u570b\u5c0f(2018)", "gps_lat": 25.053963, "gps_lon": 121.427681, "pm2.5": 27.9, "humidity": 100.0, "temperature": 30.008000000000003}, {"deviceId": "74DA38F7C46C", "siteName": "\u65b0\u5317\u5e02\u8001\u6885\u570b\u5c0f(2018)", "gps_lat": 25.288, "gps_lon": 121.544, "pm2.5": 0.0, "humidity": 0.0, "temperature": -4.0}, {"deviceId": "74DA38F7C464", "siteName": "\u65b0\u5317\u5e02\u4e09\u591a\u570b\u4e2d(2018)", "gps_lat": 25.006, "gps_lon": 121.413, "pm2.5": 0.0, "humidity": 100.0, "temperature": 29.984444444444446}, {"deviceId": "74DA38F7C442", "siteName": "\u65b0\u5317\u5e02\u9054\u89c0\u570b\u4e2d(2018)", "gps_lat": 24.953, "gps_lon": 121.5, "pm2.5": 3.3333333333333335, "humidity": 100.0, "temperature": 29.17555555555556}, {"deviceId": "74DA38F7C430", "siteName": "\u65b0\u5317\u5e02\u5f6d\u798f\u570b\u5c0f(2018)", "gps_lat": 24.981, "gps_lon": 121.423, "pm2.5": 0.0, "humidity": 99.66666666666667, "temperature": 29.59222222222222}, {"deviceId": "74DA38F7C42E", "siteName": "\u65b0\u5317\u5e02\u5b89\u5eb7\u9ad8\u4e2d(2018)", "gps_lat": 24.969, "gps_lon": 121.514, "pm2.5": 0.0, "humidity": 100.0, "temperature": 28.369999999999997}, {"deviceId": "74DA38F7C428", "siteName": "\u5e02\u7acb\u96d9\u84ee\u570b\u5c0f(2018)", "gps_lat": 25.061, "gps_lon": 121.517, "pm2.5": 18.88888888888889, "humidity": 100.0, "temperature": 29.647777777777783}, {"deviceId": "74DA38F7C41E", "siteName": "\u5e02\u7acb\u65e5\u65b0\u570b\u5c0f(2018)", "gps_lat": 25.054, "gps_lon": 121.517, "pm2.5": 17.88888888888889, "humidity": 82.66666666666667, "temperature": 30.09222222222222}, {"deviceId": "74DA38F7C40C", "siteName": "\u65b0\u5317\u5e02\u79c0\u5c71\u570b\u5c0f(2018)", "gps_lat": 24.995, "gps_lon": 121.52, "pm2.5": 0.0, "humidity": 100.0, "temperature": 29.355}, {"deviceId": "74DA38F7C3E2", "siteName": "\u65b0\u5317\u5e02\u677f\u6a4b\u5e7c\u5152\u5712(2018)", "gps_lat": 25.02, "gps_lon": 121.453, "pm2.5": 0.0, "humidity": 77.4, "temperature": 29.019000000000005}, {"deviceId": "74DA38F7C3DC", "siteName": "\u5e02\u7acb\u6b66\u529f\u570b\u5c0f(2018)", "gps_lat": 25.003, "gps_lon": 121.539, "pm2.5": 22.9, "humidity": 100.0, "temperature": 28.611}, {"deviceId": "74DA38F7C3D6", "siteName": "\u5e02\u7acb\u61f7\u751f\u570b\u5c0f(2018)", "gps_lat": 25.045, "gps_lon": 121.541, "pm2.5": 12.0, "humidity": 100.0, "temperature": 31.336000000000002}, {"deviceId": "74DA38F7C3A4", "siteName": "\u65b0\u5317\u5e02\u6587\u5316\u570b\u5c0f(2018)", "gps_lat": 25.174, "gps_lon": 121.437, "pm2.5": 0.0, "humidity": 100.0, "temperature": 32.352000000000004}, {"deviceId": "74DA38F7C39A", "siteName": "\u65b0\u5317\u5e02\u6b66\u6797\u570b\u5c0f(2018)", "gps_lat": 25.002, "gps_lon": 121.414, "pm2.5": 0, "humidity": 0, "temperature": 0}, {"deviceId": "74DA38F7C384", "siteName": "\u65b0\u5317\u5e02\u5317\u65b0\u570b\u5c0f(2018)", "gps_lat": 24.974, "gps_lon": 121.544, "pm2.5": 26.77777777777778, "humidity": 100.0, "temperature": 28.40666666666667}, {"deviceId": "74DA38F7C37C", "siteName": "\u65b0\u5317\u5e02\u96d9\u6eaa\u9ad8\u4e2d(2018)", "gps_lat": 25.111, "gps_lon": 121.856, "pm2.5": 0.0, "humidity": 100.0, "temperature": 26.928888888888892}, {"deviceId": "74DA38F7C366", "siteName": "\u65b0\u5317\u5e02\u6c38\u548c\u570b\u5c0f(2018)", "gps_lat": 25.002, "gps_lon": 121.516, "pm2.5": 17.0, "humidity": 100.0, "temperature": 29.28}, {"deviceId": "74DA38F7C338", "siteName": "\u65b0\u5317\u5e02\u677f\u6a4b\u570b\u5c0f(2018)", "gps_lat": 25.011, "gps_lon": 121.458, "pm2.5": 27.0, "humidity": 100.0, "temperature": 29.36}, {"deviceId": "74DA38F7C31C", "siteName": "\u65b0\u5317\u5e02\u5b89\u6eaa\u570b\u5c0f(2018)", "gps_lat": 24.93, "gps_lon": 121.372, "pm2.5": 0.2222222222222222, "humidity": 100.0, "temperature": 27.45555555555556}, {"deviceId": "74DA38F7C30E", "siteName": "\u65b0\u5317\u5e02\u6843\u5b50\u8173\u570b\u4e2d(2018)", "gps_lat": 24.949, "gps_lon": 121.382, "pm2.5": 26.22222222222222, "humidity": 100.0, "temperature": 29.68777777777778}, {"deviceId": "74DA38F7C30C", "siteName": "\u65b0\u5317\u5e02\u65b0\u5e97\u9ad8\u4e2d(2018)", "gps_lat": 24.975, "gps_lon": 121.532, "pm2.5": 23.22222222222222, "humidity": 100.0, "temperature": 28.90666666666667}, {"deviceId": "74DA38F7C2DA", "siteName": "Bird lower", "gps_lat": 24.176, "gps_lon": 120.648, "pm2.5": 0.3333333333333333, "humidity": 100.0, "temperature": 27.70555555555556}, {"deviceId": "74DA38F7C2D6", "siteName": "\u660e\u65e5", "gps_lat": 24.161, "gps_lon": 120.732, "pm2.5": 0.0, "humidity": 100.0, "temperature": 28.369000000000007}, {"deviceId": "74DA38F7C2CE", "siteName": "AirBox-NDMC-21", "gps_lat": 24.866, "gps_lon": 120.986, "pm2.5": 12.7, "humidity": 71.7, "temperature": 27.261000000000003}, {"deviceId": "74DA38F7C2BE", "siteName": "AirBox-NDMC-25", "gps_lat": 24.838, "gps_lon": 121.024, "pm2.5": 10.7, "humidity": 62.1, "temperature": 26.76}, {"deviceId": "74DA38F7C29C", "siteName": "\u65b0\u5317\u5e02\u4e39\u9cf3\u9ad8\u4e2d(2018)", "gps_lat": 25.02, "gps_lon": 121.416, "pm2.5": 31.444444444444443, "humidity": 100.0, "temperature": 29.07666666666667}, {"deviceId": "74DA38F7C28C", "siteName": "THU_USR_38(2019)", "gps_lat": 23.89, "gps_lon": 120.359, "pm2.5": 0.0, "humidity": 100.0, "temperature": 28.42222222222223}, {"deviceId": "74DA38F7C288", "siteName": "THU_USR_45(2019)", "gps_lat": 24.183, "gps_lon": 120.589, "pm2.5": 5.4, "humidity": 63.9, "temperature": 25.959000000000003}, {"deviceId": "74DA38F7C282", "siteName": "THU_USR_48(2019)", "gps_lat": 24.183, "gps_lon": 120.589, "pm2.5": 6.2, "humidity": 70.2, "temperature": 26.786}, {"deviceId": "74DA38F7C27E", "siteName": "\u65b0\u5317\u5e02\u4e2d\u5e73\u570b\u4e2d(2018)", "gps_lat": 25.053, "gps_lon": 121.444, "pm2.5": 29.5, "humidity": 100.0, "temperature": 29.360000000000007}, {"deviceId": "74DA38F7C278", "siteName": "THU_USR_33(2019)", "gps_lat": 23.861, "gps_lon": 120.429, "pm2.5": 0.0, "humidity": 100.0, "temperature": 29.24666666666667}, {"deviceId": "74DA38F7C276", "siteName": "THU_USR_34(2019)", "gps_lat": 23.896, "gps_lon": 120.328, "pm2.5": 0.0, "humidity": 100.0, "temperature": 28.79888888888889}, {"deviceId": "74DA38F7C260", "siteName": "\u65b0\u5317\u5e02\u6cf0\u5c71\u570b\u4e2d(2018)", "gps_lat": 25.065, "gps_lon": 121.425, "pm2.5": 0.16666666666666666, "humidity": 0.0, "temperature": -4.0}, {"deviceId": "74DA38F7C212", "siteName": "\u82b1\u58c7\u570b\u4e2d \u81ea\u5f37\u6a13B\u68df", "gps_lat": 24.03, "gps_lon": 120.55, "pm2.5": 35.44444444444444, "humidity": 100.0, "temperature": 29.172222222222224}, {"deviceId": "74DA38F7C210", "siteName": "tree01", "gps_lat": 23.972, "gps_lon": 120.968, "pm2.5": 13.5, "humidity": 100.0, "temperature": 27.459000000000003}, {"deviceId": "74DA38F7C200", "siteName": "taichung16pt", "gps_lat": 24.136, "gps_lon": 120.635, "pm2.5": 24.0, "humidity": 0.0, "temperature": -4.0}, {"deviceId": "74DA38F7C1C8", "siteName": "THU_USR_65(2019)", "gps_lat": 24.07, "gps_lon": 120.543, "pm2.5": 24.0, "humidity": 84.88888888888889, "temperature": 30.0}, {"deviceId": "74DA38F7C1B6", "siteName": "THU_USR_62(2019)", "gps_lat": 24.122, "gps_lon": 120.574, "pm2.5": 29.7, "humidity": 78.3, "temperature": 30.019}, {"deviceId": "74DA38F7C1B4", "siteName": "THU_USR_66(2019)", "gps_lat": 24.185, "gps_lon": 120.587, "pm2.5": 34.7, "humidity": 87.0, "temperature": 28.638000000000005}, {"deviceId": "74DA38F7C194", "siteName": "Peter_Taipei_Home", "gps_lat": 25.05, "gps_lon": 121.556, "pm2.5": 15.7, "humidity": 76.0, "temperature": 31.055}, {"deviceId": "74DA38F7C186", "siteName": "AirBox-NDMC-16", "gps_lat": 24.266, "gps_lon": 120.785, "pm2.5": 31.555555555555557, "humidity": 98.55555555555556, "temperature": 24.580000000000002}, {"deviceId": "74DA38F7C176", "siteName": "taichung171", "gps_lat": 24.148, "gps_lon": 120.669, "pm2.5": 0, "humidity": 0, "temperature": 0}, {"deviceId": "74DA38F7051E", "siteName": "\u81fa\u5317\u5e02\u6cc9\u6e90\u5be6\u9a57\u570b\u6c11\u5c0f\u5b782\u6a13", "gps_lat": 25.149, "gps_lon": 121.523, "pm2.5": 13.88888888888889, "humidity": 83.77777777777777, "temperature": 31.641111111111115}, {"deviceId": "74DA38F704F4", "siteName": "\u864e\u5c71\u570b\u5c0f01", "gps_lat": 23.963, "gps_lon": 120.685, "pm2.5": 21.88888888888889, "humidity": 100.0, "temperature": 28.52111111111111}, {"deviceId": "74DA38F704DC", "siteName": "stes01", "gps_lat": 23.866, "gps_lon": 120.585, "pm2.5": 27.7, "humidity": 100.0, "temperature": 27.659000000000002}, {"deviceId": "74DA38F704C0", "siteName": "cc00795", "gps_lat": 25.057, "gps_lon": 121.545, "pm2.5": 6.6, "humidity": 58.1, "temperature": 31.697000000000003}, {"deviceId": "74DA38F704BE", "siteName": "cc00794", "gps_lat": 25.095, "gps_lon": 121.495, "pm2.5": 14.6, "humidity": 64.3, "temperature": 30.816000000000003}, {"deviceId": "74DA38F704B4", "siteName": "blue OR indoor", "gps_lat": 22.687, "gps_lon": 120.314, "pm2.5": 0.0, "humidity": 44.6, "temperature": 28.680000000000007}, {"deviceId": "74DA38F704A2", "siteName": "YD165", "gps_lat": 22.629, "gps_lon": 120.318, "pm2.5": 2.6666666666666665, "humidity": 66.0, "temperature": 31.573333333333338}, {"deviceId": "74DA38F7044E", "siteName": "\u8208\u6771\u91cc", "gps_lat": 22.471, "gps_lon": 120.46, "pm2.5": 10.5, "humidity": 68.5, "temperature": 30.127000000000002}, {"deviceId": "74DA38F70402", "siteName": "\u81fa\u5357\u5e02\u4e09\u6148\u570b\u5c0f", "gps_lat": 23.239, "gps_lon": 120.109, "pm2.5": 18.3, "humidity": 100.0, "temperature": 31.049000000000007}, {"deviceId": "74DA38F703F4", "siteName": "\u6046\u6625\u5de5\u5546\u7384\u95dc", "gps_lat": 21.992, "gps_lon": 120.747, "pm2.5": 11.333333333333334, "humidity": 54.0, "temperature": 31.08555555555556}, {"deviceId": "74DA38F703E2", "siteName": "\u548c\u8208", "gps_lat": 23.442, "gps_lon": 120.454, "pm2.5": 11.222222222222221, "humidity": 81.55555555555556, "temperature": 28.533333333333335}, {"deviceId": "74DA38F703DE", "siteName": "Nanpupm02", "gps_lat": 24.634, "gps_lon": 120.973, "pm2.5": 20.5, "humidity": 66.1, "temperature": 28.624000000000006}, {"deviceId": "74DA38F703CA", "siteName": "GreenLifeAB", "gps_lat": 22.976, "gps_lon": 120.199, "pm2.5": 36.6, "humidity": 76.7, "temperature": 30.052000000000003}, {"deviceId": "74DA38F703A6", "siteName": "\u5f70\u5316\u7e23\u7530\u982d\u570b\u5c0f01", "gps_lat": 23.836, "gps_lon": 120.449, "pm2.5": 18.666666666666668, "humidity": 82.66666666666667, "temperature": 30.42222222222223}, {"deviceId": "74DA38F7039C", "siteName": "\u592a\u5e73\u570b\u5c0f", "gps_lat": 24.026, "gps_lon": 120.921, "pm2.5": 32.666666666666664, "humidity": 100.0, "temperature": 25.095555555555556}, {"deviceId": "74DA38F70392", "siteName": "khps\u897f2\u6a13", "gps_lat": 22.547, "gps_lon": 120.543, "pm2.5": 8.333333333333334, "humidity": 64.55555555555556, "temperature": 30.33555555555556}, {"deviceId": "74DA38F70384", "siteName": "kh\u54e1\u8fb2", "gps_lat": 23.95, "gps_lon": 120.581, "pm2.5": 16.3, "humidity": 64.6, "temperature": 30.155}, {"deviceId": "74DA38F7037E", "siteName": "\u660c\u9686\u570b\u5c0f\u8fa6\u516c\u5ba4", "gps_lat": 22.446, "gps_lon": 120.56, "pm2.5": 9.333333333333334, "humidity": 100.0, "temperature": 27.63666666666667}, {"deviceId": "74DA38F7036C", "siteName": "\u53f0\u5357\u5e02\u5584\u7cd6\u570b\u5c0f\u7a7a\u6c23\u76d2\u5b50", "gps_lat": 23.153, "gps_lon": 120.288, "pm2.5": 9.777777777777779, "humidity": 100.0, "temperature": 29.231111111111115}, {"deviceId": "74DA38F70310", "siteName": "2463", "gps_lat": 24.18, "gps_lon": 120.622, "pm2.5": 26.555555555555557, "humidity": 71.88888888888889, "temperature": 29.977777777777778}, {"deviceId": "74DA38F702DC", "siteName": "\u7acb\u8fb2\u8857\u4e8c\u6bb5289\u5df7", "gps_lat": 25.119, "gps_lon": 121.515, "pm2.5": 0, "humidity": 0, "temperature": 0}, {"deviceId": "74DA38F702D6", "siteName": "Pt-air01", "gps_lat": 24.003, "gps_lon": 120.946, "pm2.5": 15.0, "humidity": 88.0, "temperature": 28.0}, {"deviceId": "74DA38F702C8", "siteName": "Astra", "gps_lat": 24.812, "gps_lon": 120.962, "pm2.5": 26.7, "humidity": 81.4, "temperature": 30.827000000000005}, {"deviceId": "74DA38F7025E", "siteName": "\u963f\u52f8", "gps_lat": 23.756, "gps_lon": 120.323, "pm2.5": 15.1, "humidity": 54.4, "temperature": 26.023000000000003}, {"deviceId": "74DA38F70244", "siteName": "myPM2.5_44", "gps_lat": 23.925, "gps_lon": 120.638, "pm2.5": 17.4, "humidity": 100.0, "temperature": 28.113000000000007}, {"deviceId": "74DA38F70208", "siteName": "\u4f38\u6771\u570b\u5c0f2", "gps_lat": 24.146, "gps_lon": 120.496, "pm2.5": 19.6, "humidity": 67.0, "temperature": 30.110000000000007}, {"deviceId": "74DA38F701C4", "siteName": "\u4e2d\u793e\u8def\u4e00\u6bb536\u5df73\u865f1\u6a13", "gps_lat": 25.108, "gps_lon": 121.559, "pm2.5": 26.2, "humidity": 100.0, "temperature": 27.320999999999998}, {"deviceId": "74DA38F701C2", "siteName": "\u9f8d\u660c\u8defB", "gps_lat": 24.218, "gps_lon": 120.489, "pm2.5": 29.1, "humidity": 100.0, "temperature": 30.066000000000003}, {"deviceId": "74DA38F701C0", "siteName": "\u65b0\u6a39\u8def258\u5df71\u865fA", "gps_lat": 25.015, "gps_lon": 121.431, "pm2.5": 0.0, "humidity": 44.3, "temperature": 28.232000000000006}, {"deviceId": "74DA38F701BE", "siteName": "Emma", "gps_lat": 25.055, "gps_lon": 121.546, "pm2.5": 2.0, "humidity": 52.4, "temperature": 26.847}, {"deviceId": "74DA38F701BC", "siteName": "\u5357\u5824\u8def", "gps_lat": 24.21, "gps_lon": 120.475, "pm2.5": 35.0, "humidity": 100.0, "temperature": 29.516000000000002}, {"deviceId": "74DA38F701B2", "siteName": "\u79d1\u5712\u8def\u6c34\u5854\uff08\u5de6\uff09", "gps_lat": 24.199, "gps_lon": 120.601, "pm2.5": 30.3, "humidity": 100.0, "temperature": 25.911}, {"deviceId": "74DA38F701AA", "siteName": "\u9f8d\u660c\u8defA", "gps_lat": 24.22, "gps_lon": 120.477, "pm2.5": 31.5, "humidity": 100.0, "temperature": 30.472}, {"deviceId": "74DA38F701A6", "siteName": "\u65b0\u79d1\u8def(\u53f3)", "gps_lat": 24.212, "gps_lon": 120.608, "pm2.5": 46.22222222222222, "humidity": 100.0, "temperature": 25.872222222222224}, {"deviceId": "74DA38F70192", "siteName": "\u83ef\u76db\u9813\u5c0f\u5b78\u767d\u5bae\u8fa6\u516c\u5ba4", "gps_lat": 24.196, "gps_lon": 120.716, "pm2.5": 22.0, "humidity": 100.0, "temperature": 27.185000000000002}, {"deviceId": "74DA38F70190", "siteName": "\u83ef\u76db\u9813\u5c0f\u5b78\u570b\u969b\u85dd\u6587\u5927\u6a13", "gps_lat": 24.197, "gps_lon": 120.716, "pm2.5": 21.22222222222222, "humidity": 79.66666666666667, "temperature": 29.255555555555556}, {"deviceId": "74DA38F70186", "siteName": "\u5f70\u5316\u7e23\u7acb\u597d\u4fee\u570b\u5c0f02", "gps_lat": 24.007, "gps_lon": 120.458, "pm2.5": 29.11111111111111, "humidity": 93.22222222222223, "temperature": 33.06111111111111}, {"deviceId": "74DA38F7017C", "siteName": "\u81fa\u4e2d\u5e02\u5927\u696d\u570b\u4e2d\u8cc7\u512a\u73ed\u6eab\u99a8\u5712\u5730", "gps_lat": 24.154, "gps_lon": 120.652, "pm2.5": 20.571428571428573, "humidity": 63.857142857142854, "temperature": 30.614285714285717}, {"deviceId": "74DA38F70170", "siteName": "\u5149\u6625\u570b\u4e2d", "gps_lat": 22.534, "gps_lon": 120.54, "pm2.5": 9.9, "humidity": 61.3, "temperature": 31.944000000000006}, {"deviceId": "74DA38F7015A", "siteName": "TaipeiGarden", "gps_lat": 25.037, "gps_lon": 121.57, "pm2.5": 22.9, "humidity": 100.0, "temperature": 29.25}, {"deviceId": "74DA38F7013E", "siteName": "\u5927\u9032\u570b\u5c0f", "gps_lat": 23.655, "gps_lon": 121.419, "pm2.5": 1.0, "humidity": 63.77777777777778, "temperature": 30.0}, {"deviceId": "74DA38F70138", "siteName": "\u745e\u7f8e\u570b\u5c0fpm2.5", "gps_lat": 23.492, "gps_lon": 121.39, "pm2.5": 0.0, "humidity": 86.2, "temperature": 28.788000000000004}, {"deviceId": "74DA38F70110", "siteName": "\u570b\u7acb\u5317\u9580\u9ad8\u4e2d_\u50b3\u9054\u5ba4", "gps_lat": 23.167, "gps_lon": 120.177, "pm2.5": 168.5, "humidity": 100.0, "temperature": 30.419}, {"deviceId": "74DA38F7010E", "siteName": "\u570b\u7acb\u5317\u9580\u9ad8\u4e2d_\u64cd\u5834", "gps_lat": 23.167, "gps_lon": 120.175, "pm2.5": 20.7, "humidity": 100.0, "temperature": 29.969000000000005}, {"deviceId": "74DA38F70104", "siteName": "\u80b2\u5e73\u8def(\u5b89\u5e73)", "gps_lat": 22.988, "gps_lon": 120.167, "pm2.5": 8.4, "humidity": 0.0, "temperature": -4.0}, {"deviceId": "74DA38F700F8", "siteName": "\u6771\u6e2f\u9ad8\u4e2d\u81ea\u5f37\u6a13", "gps_lat": 22.465, "gps_lon": 120.455, "pm2.5": 15.0, "humidity": 84.0, "temperature": 30.597777777777782}, {"deviceId": "74DA38F700E6", "siteName": "285", "gps_lat": 24.689, "gps_lon": 120.869, "pm2.5": 27.714285714285715, "humidity": 66.71428571428571, "temperature": 32.99142857142857}, {"deviceId": "74DA38F700DA", "siteName": "trps02", "gps_lat": 23.557, "gps_lon": 120.434, "pm2.5": 8.777777777777779, "humidity": 95.11111111111111, "temperature": 29.953333333333333}, {"deviceId": "74DA38F700D8", "siteName": "trps01", "gps_lat": 23.557, "gps_lon": 120.434, "pm2.5": 23.88888888888889, "humidity": 100.0, "temperature": 28.521111111111118}, {"deviceId": "74DA38F70088", "siteName": "ntjh", "gps_lat": 23.912, "gps_lon": 120.675, "pm2.5": 14.6, "humidity": 77.9, "temperature": 28.222}, {"deviceId": "74DA38F70084", "siteName": "island", "gps_lat": 23.976, "gps_lon": 120.704, "pm2.5": 32.7, "humidity": 100.0, "temperature": 26.897000000000002}, {"deviceId": "74DA38F70082", "siteName": "\u592a\u5b50\u570b\u4e2d", "gps_lat": 23.291, "gps_lon": 120.271, "pm2.5": 17.7, "humidity": 100.0, "temperature": 30.299000000000007}, {"deviceId": "74DA38F7005E", "siteName": "\u5317\u9580\u5751\u8fd1\u96ea\u96a7", "gps_lat": 24.845, "gps_lon": 121.791, "pm2.5": 26.22222222222222, "humidity": 79.0, "temperature": 30.26444444444445}, {"deviceId": "74DA38F70038", "siteName": "\u5927\u696d\u570b\u4e2d\u79d1\u5b78\u5275\u5ba2\u6559\u5ba4", "gps_lat": 24.154, "gps_lon": 120.652, "pm2.5": 22.333333333333332, "humidity": 100.0, "temperature": 29.030000000000005}, {"deviceId": "74DA38F70030", "siteName": "\u570b\u8056\u3127\u8857", "gps_lat": 24.987, "gps_lon": 121.287, "pm2.5": 24.7, "humidity": 50.7, "temperature": 26.985000000000003}, {"deviceId": "74DA38F70024", "siteName": "myPM2.5-h", "gps_lat": 25.039, "gps_lon": 121.589, "pm2.5": 27.3, "humidity": 91.8, "temperature": 29.891000000000002}, {"deviceId": "74DA38F6FFF8", "siteName": "\u6c38\u9686\u5eda\u5177", "gps_lat": 23.751, "gps_lon": 120.748, "pm2.5": 16.1, "humidity": 80.5, "temperature": 27.585}, {"deviceId": "74DA38F6FFF6", "siteName": "cloudgate", "gps_lat": 23.757, "gps_lon": 120.677, "pm2.5": 13.4, "humidity": 63.3, "temperature": 27.285000000000004}, {"deviceId": "74DA38F6FFEC", "siteName": "\u4f86\u310e\u82ad\u6a02\u5427", "gps_lat": 23.886, "gps_lon": 120.587, "pm2.5": 19.8, "humidity": 100.0, "temperature": 30.838000000000005}, {"deviceId": "74DA38F6FFE0", "siteName": "THH", "gps_lat": 22.709, "gps_lon": 120.298, "pm2.5": 0.6666666666666666, "humidity": 63.22222222222222, "temperature": 26.400000000000002}, {"deviceId": "74DA38F6FFDC", "siteName": "\u6c38\u9686\u793e\u5340", "gps_lat": 23.75, "gps_lon": 120.777, "pm2.5": 31.666666666666668, "humidity": 100.0, "temperature": 24.624444444444446}, {"deviceId": "74DA38F6FFD0", "siteName": "\u9e7f\u8c37\u6e38\u6cf3\u6c60", "gps_lat": 23.744, "gps_lon": 120.757, "pm2.5": 21.3, "humidity": 89.9, "temperature": 24.122000000000003}, {"deviceId": "74DA38F6FFCE", "siteName": "\u840a\u723e\u5bcc", "gps_lat": 23.758, "gps_lon": 120.677, "pm2.5": 21.2, "humidity": 70.0, "temperature": 30.0}, {"deviceId": "74DA38F6FFAC", "siteName": "CET.indoor", "gps_lat": 22.619, "gps_lon": 120.299, "pm2.5": 5.8, "humidity": 53.0, "temperature": 28.374000000000006}, {"deviceId": "74DA38F6FFA8", "siteName": "CET.outdoor", "gps_lat": 22.619, "gps_lon": 120.3, "pm2.5": 13.3, "humidity": 80.8, "temperature": 30.349000000000007}, {"deviceId": "74DA38F6FFA4", "siteName": "Castle", "gps_lat": 24.991, "gps_lon": 121.577, "pm2.5": 29.5, "humidity": 100.0, "temperature": 26.060000000000002}, {"deviceId": "74DA38F6FF94", "siteName": "\u96b1\u5c45", "gps_lat": 23.489, "gps_lon": 120.468, "pm2.5": 2.0, "humidity": 68.0, "temperature": 29.416000000000004}, {"deviceId": "74DA38F6FF70", "siteName": "\u570b\u7acb\u5317\u9580\u9ad8\u4e2d_\u5716\u66f8\u99285\u6a13", "gps_lat": 23.1682138, "gps_lon": 120.1773977, "pm2.5": 18.333333333333332, "humidity": 83.44444444444444, "temperature": 37.12111111111111}, {"deviceId": "74DA38F6FF60", "siteName": "\u65b0\u797f\u516c\u5712", "gps_lat": 25.065, "gps_lon": 121.527, "pm2.5": 27.2, "humidity": 70.1, "temperature": 31.202000000000005}, {"deviceId": "74DA38F6FF5A", "siteName": "Blsh-SCIclass", "gps_lat": 25.087, "gps_lon": 121.523, "pm2.5": 25.714285714285715, "humidity": 0.0, "temperature": -4.0}, {"deviceId": "74DA38F6FF42", "siteName": "A-2", "gps_lat": 24.631, "gps_lon": 121.789, "pm2.5": 28.7, "humidity": 77.7, "temperature": 30.838000000000005}, {"deviceId": "74DA38F6FF28", "siteName": "jchiou\u5bf6\u8208", "gps_lat": 24.973, "gps_lon": 121.55, "pm2.5": 7.5, "humidity": 50.1, "temperature": 26.410000000000004}, {"deviceId": "74DA38F6FF22", "siteName": "\u51ac\u5c0f A-1", "gps_lat": 24.631, "gps_lon": 121.789, "pm2.5": 25.0, "humidity": 100.0, "temperature": 29.990000000000002}, {"deviceId": "74DA38F6FF20", "siteName": "\u50d1\u4fe1\u8def109\u3001120\u5df7\u53e3", "gps_lat": 24.946, "gps_lon": 121.5, "pm2.5": 7.2, "humidity": 100.0, "temperature": 29.93}, {"deviceId": "74DA38F6FF08", "siteName": "\u57d4\u91cc\u5fe0\u5b5d\u570b\u5c0f02", "gps_lat": 23.991, "gps_lon": 120.98, "pm2.5": 16.4, "humidity": 60.3, "temperature": 31.130000000000003}, {"deviceId": "74DA38F6FEF6", "siteName": "\u726f\u5dba\u8857", "gps_lat": 25.024, "gps_lon": 121.513, "pm2.5": 27.555555555555557, "humidity": 82.77777777777777, "temperature": 28.854444444444443}, {"deviceId": "74DA38F6FECA", "siteName": "\u6c84\u6c34\u570b\u5c0f\u5317\u4e8c", "gps_lat": 23.381, "gps_lon": 120.53, "pm2.5": 9.1, "humidity": 100.0, "temperature": 26.857999999999997}, {"deviceId": "74DA38F6FEC8", "siteName": "\u660e\u6b631\u865f", "gps_lat": 24.027, "gps_lon": 120.492, "pm2.5": 9.2, "humidity": 59.0, "temperature": 28.68}, {"deviceId": "74DA38F6FEC0", "siteName": "FXing", "gps_lat": 25.137, "gps_lon": 121.484, "pm2.5": 27.7, "humidity": 70.2, "temperature": 31.763000000000005}, {"deviceId": "74DA38F6FEB6", "siteName": "\u5de6\u93ae\u570b\u4e2d2", "gps_lat": 23.057, "gps_lon": 120.41, "pm2.5": 9.2, "humidity": 90.2, "temperature": 28.566000000000003}, {"deviceId": "74DA38F6FEB0", "siteName": "\u660e\u6b632\u865f", "gps_lat": 24.027, "gps_lon": 120.492, "pm2.5": 20.2, "humidity": 80.9, "temperature": 29.25}, {"deviceId": "74DA38F6FEAE", "siteName": "\u5de6\u93ae\u570b\u4e2d\u7a7a\u6c23\u54c1\u8cea\u76e3\u6e2c", "gps_lat": 23.056, "gps_lon": 120.41, "pm2.5": 11.9, "humidity": 100.0, "temperature": 28.068}, {"deviceId": "74DA38F6FE7A", "siteName": "\u8392\u5149\u8def\u7384\u8056\u5bae", "gps_lat": 25.024, "gps_lon": 121.472, "pm2.5": 31.4, "humidity": 100.0, "temperature": 30.166000000000004}, {"deviceId": "74DA38F6FE6A", "siteName": "joygold", "gps_lat": 24.082, "gps_lon": 120.54, "pm2.5": 20.0, "humidity": 100.0, "temperature": 29.450000000000003}, {"deviceId": "74DA38F21204", "siteName": "\u53f0\u6771\u7e23\u7e23\u7acb\u5609\u862d\u570b\u5c0f(2018)", "gps_lat": 25.062, "gps_lon": 121.451, "pm2.5": 6.8, "humidity": 100.0, "temperature": 29.48}, {"deviceId": "74DA38F2118E", "siteName": "\u9023\u6c5f\u7e23\u7e23\u7acb\u4ec1\u611b\u570b\u5c0f(2018)", "gps_lat": 26.148, "gps_lon": 119.935, "pm2.5": 49.55555555555556, "humidity": 100.0, "temperature": 30.27111111111111}, {"deviceId": "74DA38F2116A", "siteName": "\u53f0\u6771\u7e23\u7e23\u7acb\u521d\u9e7f\u570b\u4e2d(2018)", "gps_lat": 22.85, "gps_lon": 121.092, "pm2.5": 13.7, "humidity": 86.0, "temperature": 30.077000000000005}, {"deviceId": "74DA38F21164", "siteName": "\u53f0\u6771\u7e23\u7e23\u7acb\u95dc\u5c71\u570b\u4e2d(2018)", "gps_lat": 23.045, "gps_lon": 121.159, "pm2.5": 14.6, "humidity": 78.6, "temperature": 29.282999999999998}, {"deviceId": "74DA38F2115E", "siteName": "\u5e02\u7acb\u862d\u96c5\u570b\u5c0f(2018)", "gps_lat": 25.108, "gps_lon": 121.523, "pm2.5": 0.8, "humidity": 100.0, "temperature": 29.658000000000005}, {"deviceId": "74DA38F21158", "siteName": "\u9ad8\u96c4\u5e02\u5e02\u7acb\u5de6\u71df\u570b\u4e2d(2018)", "gps_lat": 22.679, "gps_lon": 120.306, "pm2.5": 0.0, "humidity": 100.0, "temperature": 29.200000000000003}, {"deviceId": "74DA38F21150", "siteName": "\u9ad8\u96c4\u5e02\u5e02\u7acb\u5bf6\u4f86\u570b\u4e2d(2018)", "gps_lat": 23.109, "gps_lon": 120.703, "pm2.5": 5.222222222222222, "humidity": 100.0, "temperature": 23.664444444444445}, {"deviceId": "74DA38F2113E", "siteName": "\u9ad8\u96c4\u5e02\u6960\u6893\u7279\u6b8a\u5b78\u6821(2018)", "gps_lat": 22.728, "gps_lon": 120.313, "pm2.5": 0.0, "humidity": 100.0, "temperature": 27.19}, {"deviceId": "74DA38F21136", "siteName": "\u5e02\u7acb\u7acb\u8fb2\u570b\u5c0f(2018)", "gps_lat": 25.119, "gps_lon": 121.505, "pm2.5": 18.0, "humidity": 100.0, "temperature": 29.58555555555556}, {"deviceId": "74DA38F21100", "siteName": "\u9ad8\u96c4\u5e02\u5e02\u7acb\u9ad8\u96c4\u7279\u6b8a\u5b78\u6821(2018)", "gps_lat": 22.635, "gps_lon": 120.322, "pm2.5": 11.9, "humidity": 71.8, "temperature": 28.849000000000007}, {"deviceId": "74DA38F210F0", "siteName": "\u9ad8\u96c4\u5e02\u5e02\u7acb\u5ca1\u5c71\u570b\u4e2d(2018)", "gps_lat": 22.791, "gps_lon": 120.303, "pm2.5": 11.6, "humidity": 100.0, "temperature": 29.327000000000005}, {"deviceId": "74DA38F210AA", "siteName": "\u5e02\u7acb\u793e\u5b50\u570b\u5c0f(2018)", "gps_lat": 25.089, "gps_lon": 121.503, "pm2.5": 23.5, "humidity": 100.0, "temperature": 30.494000000000007}, {"deviceId": "74DA38F210A2", "siteName": "\u5e02\u7acb\u95dc\u6e21\u570b\u5c0f(2018)", "gps_lat": 25.12, "gps_lon": 121.466, "pm2.5": 6.111111111111111, "humidity": 100.0, "temperature": 29.033333333333335}, {"deviceId": "74DA38F21094", "siteName": "\u5e02\u7acb\u528d\u6f6d\u570b\u5c0f(2018)", "gps_lat": 25.075, "gps_lon": 121.519, "pm2.5": 19.22222222222222, "humidity": 85.77777777777777, "temperature": 30.02444444444445}, {"deviceId": "74DA38F21088", "siteName": "\u5e02\u7acb\u65b0\u6e56\u570b\u5c0f(2018)", "gps_lat": 25.068, "gps_lon": 121.588, "pm2.5": 0.0, "humidity": 100.0, "temperature": 29.847777777777782}, {"deviceId": "74DA38F21066", "siteName": "\u9ad8\u96c4\u5e02\u5e02\u7acb\u6c38\u6e05\u570b\u5c0f(2018)", "gps_lat": 22.675, "gps_lon": 120.288, "pm2.5": 11.777777777777779, "humidity": 100.0, "temperature": 29.008888888888887}, {"deviceId": "74DA38F2105E", "siteName": "\u9ad8\u96c4\u5e02\u5e02\u7acb\u660e\u5fb7\u570b\u5c0f(2018)", "gps_lat": 22.688, "gps_lon": 120.29, "pm2.5": 0.3333333333333333, "humidity": 93.0, "temperature": 29.731111111111115}, {"deviceId": "74DA38F21054", "siteName": "\u9ad8\u96c4\u5e02\u5e02\u7acb\u65b0\u5a01\u570b\u5c0f(2018)", "gps_lat": 22.898, "gps_lon": 120.627, "pm2.5": 3.7777777777777777, "humidity": 74.44444444444444, "temperature": 27.456666666666667}, {"deviceId": "74DA38F2104E", "siteName": "\u9ad8\u96c4\u5e02\u5e02\u7acb\u5bf6\u4f86\u570b\u5c0f(2018)", "gps_lat": 23.108, "gps_lon": 120.7, "pm2.5": 7.0, "humidity": 100.0, "temperature": 24.12}, {"deviceId": "74DA38F21042", "siteName": "\u9ad8\u96c4\u5e02\u5e02\u7acb\u8def\u7af9\u570b\u5c0f(2018)", "gps_lat": 22.856, "gps_lon": 120.259, "pm2.5": 0.0, "humidity": 100.0, "temperature": 29.255555555555556}, {"deviceId": "74DA38F21024", "siteName": "\u65b0\u7af9\u7e23\u7e23\u7acb\u798f\u9f8d\u570b\u5c0f(2018)", "gps_lat": 24.93, "gps_lon": 121.036, "pm2.5": 35.6, "humidity": 100.0, "temperature": 28.708}, {"deviceId": "74DA38F2100C", "siteName": "\u9ad8\u96c4\u5e02\u5e02\u7acb\u82d3\u6d32\u570b\u5c0f(2018)", "gps_lat": 22.615, "gps_lon": 120.3, "pm2.5": 0.0, "humidity": 100.0, "temperature": 28.743333333333332}, {"deviceId": "74DA38F2100A", "siteName": "\u9ad8\u96c4\u5e02\u5e02\u7acb\u5ee3\u8208\u570b\u5c0f(2018)", "gps_lat": 22.917, "gps_lon": 120.567, "pm2.5": 3.5, "humidity": 79.0, "temperature": 30.511000000000003}, {"deviceId": "74DA38F20FFE", "siteName": "\u9ad8\u96c4\u5e02\u5e02\u7acb\u4e2d\u8def\u570b\u5c0f(2018)", "gps_lat": 22.894, "gps_lon": 120.298, "pm2.5": 9.11111111111111, "humidity": 100.0, "temperature": 27.74666666666667}, {"deviceId": "74DA38F20FF2", "siteName": "\u9ad8\u96c4\u5e02\u5e02\u7acb\u6587\u8ce2\u570b\u5c0f(2018)", "gps_lat": 22.908, "gps_lon": 120.212, "pm2.5": 0.14285714285714285, "humidity": 100.0, "temperature": 29.587142857142858}, {"deviceId": "74DA38F20FEE", "siteName": "\u9ad8\u96c4\u5e02\u5e02\u7acb\u963f\u84ee\u570b\u5c0f(2018)", "gps_lat": 22.883, "gps_lon": 120.329, "pm2.5": 0.0, "humidity": 100.0, "temperature": 30.08555555555556}, {"deviceId": "74DA38F20FDA", "siteName": "\u9ad8\u96c4\u5e02\u5e02\u7acb\u6587\u5e9c\u570b\u5c0f(2018)", "gps_lat": 22.692, "gps_lon": 120.314, "pm2.5": 3.2, "humidity": 100.0, "temperature": 29.066000000000003}, {"deviceId": "74DA38F20FCA", "siteName": "\u9ad8\u96c4\u5e02\u5e02\u7acb\u4e09\u6c11\u570b\u5c0f(2018)", "gps_lat": 22.636, "gps_lon": 120.291, "pm2.5": 10.6, "humidity": 100.0, "temperature": 29.905}, {"deviceId": "74DA38F20FB0", "siteName": "\u9ad8\u96c4\u5e02\u5e02\u7acb\u4ed5\u9686\u570b\u5c0f(2018)", "gps_lat": 22.751, "gps_lon": 120.311, "pm2.5": 14.3, "humidity": 100.0, "temperature": 29.338000000000005}, {"deviceId": "74DA38F20F98", "siteName": "\u6f8e\u6e56\u7e23\u7e23\u7acb\u99ac\u516c\u570b\u4e2d(2018)", "gps_lat": 23.569, "gps_lon": 119.581, "pm2.5": 0.0, "humidity": 100.0, "temperature": 28.347777777777782}, {"deviceId": "74DA38F20F68", "siteName": "\u9ad8\u96c4\u5e02\u5e02\u7acb\u9752\u5c71\u570b\u5c0f(2018)", "gps_lat": 22.573, "gps_lon": 120.36, "pm2.5": 0.0, "humidity": 97.88888888888889, "temperature": 29.96555555555556}, {"deviceId": "74DA38F20F64", "siteName": "\u5e02\u7acb\u6f6d\u7f8e\u570b\u5c0f(2018)", "gps_lat": 25.078, "gps_lon": 121.587, "pm2.5": 0.0, "humidity": 0.0, "temperature": -4.0}, {"deviceId": "74DA38F20F4C", "siteName": "\u5e02\u7acb\u5357\u6e2f\u570b\u5c0f(2018)", "gps_lat": 25.057, "gps_lon": 121.61, "pm2.5": 23.3, "humidity": 79.8, "temperature": 30.244000000000007}, {"deviceId": "74DA38F20F2C", "siteName": "\u9ad8\u96c4\u5e02\u5e02\u7acb\u9e7d\u57d5\u570b\u5c0f(2018)", "gps_lat": 22.623, "gps_lon": 120.282, "pm2.5": 165.8, "humidity": 100.0, "temperature": 29.624000000000006}, {"deviceId": "74DA38F20F1E", "siteName": "\u9ad8\u96c4\u5e02\u5e02\u7acb\u4e5d\u5982\u570b\u5c0f(2018)", "gps_lat": 22.652, "gps_lon": 120.278, "pm2.5": 17.7, "humidity": 100.0, "temperature": 28.580000000000002}, {"deviceId": "74DA38F20F0A", "siteName": "\u9ad8\u96c4\u5e02\u5e02\u7acb\u65b0\u767c\u570b\u5c0f(2018)", "gps_lat": 22.995, "gps_lon": 120.635, "pm2.5": 3.1, "humidity": 100.0, "temperature": 24.823}, {"deviceId": "74DA38F20EFA", "siteName": "\u9ad8\u96c4\u5e02\u5e02\u7acb\u4e8c\u82d3\u570b\u5c0f(2018)", "gps_lat": 22.564, "gps_lon": 120.353, "pm2.5": 12.0, "humidity": 71.33333333333333, "temperature": 30.823333333333338}, {"deviceId": "74DA38F20ED4", "siteName": "\u9ad8\u96c4\u5e02\u5e02\u7acb\u9f8d\u83ef\u570b\u5c0f(2018)", "gps_lat": 22.655, "gps_lon": 120.298, "pm2.5": 1.0, "humidity": 73.1, "temperature": 35.791000000000004}, {"deviceId": "74DA38F20EC8", "siteName": "\u9ad8\u96c4\u5e02\u5e02\u7acb\u7d05\u6bdb\u6e2f\u570b\u5c0f(2018)", "gps_lat": 22.583, "gps_lon": 120.334, "pm2.5": 12.0, "humidity": 0.0, "temperature": -4.0}, {"deviceId": "74DA38F20EC6", "siteName": "\u5b9c\u862d\u7e23\u7e23\u7acb\u6771\u6fb3\u570b\u5c0f(2018)", "gps_lat": 24.521, "gps_lon": 121.832, "pm2.5": 19.5, "humidity": 100.0, "temperature": 29.677000000000003}, {"deviceId": "74DA38F20EB2", "siteName": "\u65b0\u7af9\u7e23\u7e23\u7acb\u5927\u576a\u570b\u5c0f(2018)", "gps_lat": 24.324, "gps_lon": 120.835, "pm2.5": 31.9, "humidity": 100.0, "temperature": 24.748}, {"deviceId": "74DA38F20E9E", "siteName": "\u65b0\u7af9\u7e23\u7e23\u7acb\u82b1\u5712\u570b\u5c0f(2018)", "gps_lat": 24.648, "gps_lon": 121.151, "pm2.5": 14.333333333333334, "humidity": 100.0, "temperature": 27.10666666666667}, {"deviceId": "74DA38F20E6E", "siteName": "\u82d7\u6817\u7e23\u7e23\u7acb\u5927\u5357\u570b\u5c0f(2018)", "gps_lat": 24.41, "gps_lon": 120.902, "pm2.5": 18.5, "humidity": 99.9, "temperature": 25.148000000000003}, {"deviceId": "74DA38F20E44", "siteName": "\u9ad8\u96c4\u5e02\u5e02\u7acb\u4e94\u798f\u570b\u4e2d(2018)", "gps_lat": 22.629, "gps_lon": 120.317, "pm2.5": 17.7, "humidity": 100.0, "temperature": 29.127000000000002}, {"deviceId": "74DA38F20E3E", "siteName": "\u9ad8\u96c4\u5e02\u5e02\u7acb\u9f8d\u809a\u570b\u4e2d(2018)", "gps_lat": 22.878, "gps_lon": 120.57, "pm2.5": 2.1, "humidity": 60.1, "temperature": 30.838000000000005}, {"deviceId": "74DA38F20E2C", "siteName": "\u9ad8\u96c4\u5e02\u5e02\u7acb\u5f8c\u52c1\u570b\u4e2d(2018)", "gps_lat": 22.723, "gps_lon": 120.315, "pm2.5": 12.777777777777779, "humidity": 100.0, "temperature": 29.62888888888889}, {"deviceId": "74DA38F20E28", "siteName": "\u9ad8\u96c4\u5e02\u5e02\u7acb\u53f3\u660c\u570b\u4e2d(2018)", "gps_lat": 22.713, "gps_lon": 120.286, "pm2.5": 0.0, "humidity": 100.0, "temperature": 28.67555555555556}, {"deviceId": "74DA38F20E1A", "siteName": "\u9ad8\u96c4\u5e02\u5e02\u7acb\u6843\u6e90\u570b\u4e2d(2018)", "gps_lat": 23.178, "gps_lon": 120.781, "pm2.5": 3.6, "humidity": 100.0, "temperature": 24.022000000000002}, {"deviceId": "74DA38F20E00", "siteName": "\u9ad8\u96c4\u5e02\u5e02\u7acb\u963f\u84ee\u570b\u4e2d(2018)", "gps_lat": 22.885, "gps_lon": 120.325, "pm2.5": 0.0, "humidity": 100.0, "temperature": 27.760000000000005}, {"deviceId": "74DA38F20DFE", "siteName": "\u9ad8\u96c4\u5e02\u5e02\u7acb\u6893\u5b98\u570b\u4e2d(2018)", "gps_lat": 22.762, "gps_lon": 120.263, "pm2.5": 20.2, "humidity": 100.0, "temperature": 29.291000000000004}, {"deviceId": "74DA38F20DEC", "siteName": "\u9ad8\u96c4\u5e02\u5e02\u7acb\u6960\u6893\u570b\u5c0f(2018)", "gps_lat": 22.733, "gps_lon": 120.327, "pm2.5": 12.714285714285714, "humidity": 100.0, "temperature": 28.860000000000007}, {"deviceId": "74DA38F20DE2", "siteName": "\u9ad8\u96c4\u5e02\u5e02\u7acb\u93ae\u660c\u570b\u5c0f(2018)", "gps_lat": 22.59, "gps_lon": 120.317, "pm2.5": 12.11111111111111, "humidity": 100.0, "temperature": 30.21888888888889}, {"deviceId": "74DA38F20DE0", "siteName": "\u9ad8\u96c4\u5e02\u5e02\u7acb\u745e\u7965\u570b\u5c0f(2018)", "gps_lat": 22.589, "gps_lon": 120.328, "pm2.5": 14.2, "humidity": 100.0, "temperature": 29.716}, {"deviceId": "74DA38F20DDC", "siteName": "\u9ad8\u96c4\u5e02\u5e02\u7acb\u6c11\u6b0a\u570b\u5c0f(2018)", "gps_lat": 22.608, "gps_lon": 120.314, "pm2.5": 0.0, "humidity": 0.0, "temperature": -4.0}, {"deviceId": "74DA38F20DD0", "siteName": "\u9ad8\u96c4\u5e02\u5e02\u7acb\u6a02\u7fa4\u570b\u5c0f(2018)", "gps_lat": 22.6080258, "gps_lon": 120.3229833, "pm2.5": 0.0, "humidity": 100.0, "temperature": 29.144444444444446}, {"deviceId": "74DA38F20DCE", "siteName": "\u9ad8\u96c4\u5e02\u5e02\u7acb\u5fa9\u8208\u570b\u5c0f(2018)", "gps_lat": 22.608, "gps_lon": 120.311, "pm2.5": 0.0, "humidity": 0.0, "temperature": -4.0}, {"deviceId": "74DA38F20D8E", "siteName": "\u9ad8\u96c4\u5e02\u5e02\u7acb\u660e\u6b63\u570b\u5c0f(2018)", "gps_lat": 22.58, "gps_lon": 120.326, "pm2.5": 7.5, "humidity": 91.9, "temperature": 30.738000000000007}, {"deviceId": "74DA38F20D8A", "siteName": "\u9ad8\u96c4\u5e02\u5e02\u7acb\u745e\u8c50\u570b\u5c0f(2018)", "gps_lat": 22.606, "gps_lon": 120.337, "pm2.5": 15.555555555555555, "humidity": 100.0, "temperature": 27.733333333333334}, {"deviceId": "74DA38F20D70", "siteName": "\u53f0\u6771\u7e23\u7e23\u7acb\u95dc\u5c71\u570b\u5c0f(2018)", "gps_lat": 23.05, "gps_lon": 121.164, "pm2.5": 0.7777777777777778, "humidity": 100.0, "temperature": 29.508888888888887}, {"deviceId": "74DA38F20D6C", "siteName": "\u9ad8\u96c4\u5e02\u5e02\u7acb\u660e\u83ef\u570b\u4e2d(2018)", "gps_lat": 22.661, "gps_lon": 120.301, "pm2.5": 0.0, "humidity": 94.0, "temperature": 29.453333333333333}, {"deviceId": "74DA38F20D5C", "siteName": "\u9ad8\u96c4\u5e02\u5e02\u7acb\u6960\u6893\u570b\u4e2d(2018)", "gps_lat": 22.735, "gps_lon": 120.327, "pm2.5": 0.0, "humidity": 100.0, "temperature": 29.13222222222222}, {"deviceId": "74DA38F20D4C", "siteName": "\u53f0\u6771\u7e23\u7e23\u7acb\u6771\u6cb3\u570b\u5c0f(2018)", "gps_lat": 22.971, "gps_lon": 121.303, "pm2.5": 12.6, "humidity": 100.0, "temperature": 30.408000000000005}, {"deviceId": "74DA38F20D3A", "siteName": "\u82d7\u6817\u7e23\u7e23\u7acb\u5357\u5e84\u570b\u4e2d(2018)", "gps_lat": 24.604, "gps_lon": 121.0, "pm2.5": 20.9, "humidity": 100.0, "temperature": 26.135}, {"deviceId": "74DA38F20D2E", "siteName": "\u5e02\u7acb\u4e2d\u5c71\u570b\u4e2d(2018)", "gps_lat": 25.06, "gps_lon": 121.545, "pm2.5": 0.0, "humidity": 100.0, "temperature": 30.669000000000004}, {"deviceId": "74DA38F20D2A", "siteName": "\u5e02\u7acb\u6566\u5316\u570b\u4e2d(2018)", "gps_lat": 25.048, "gps_lon": 121.573, "pm2.5": 0.0, "humidity": 78.11111111111111, "temperature": 29.512222222222224}, {"deviceId": "74DA38F20D28", "siteName": "\u5e02\u7acb\u8208\u96c5\u570b\u4e2d(2018)", "gps_lat": 25.035, "gps_lon": 121.572, "pm2.5": 0.0, "humidity": 100.0, "temperature": 29.83888888888889}, {"deviceId": "74DA38F20D1E", "siteName": "\u5e02\u7acb\u6c38\u5409\u570b\u4e2d(2018)", "gps_lat": 25.048, "gps_lon": 121.573, "pm2.5": 23.4, "humidity": 100.0, "temperature": 30.036}, {"deviceId": "74DA38F20D16", "siteName": "\u5e02\u7acb\u65b0\u8208\u570b\u4e2d(2018)", "gps_lat": 25.062, "gps_lon": 121.526, "pm2.5": 22.3, "humidity": 100.0, "temperature": 30.769}, {"deviceId": "74DA38F20CFC", "siteName": "\u5c4f\u6771\u7e23\u7e23\u7acb\u7409\u7403\u570b\u5c0f(2018)", "gps_lat": 22.337, "gps_lon": 120.368, "pm2.5": 0.0, "humidity": 100.0, "temperature": 28.965555555555554}, {"deviceId": "74DA38F20CD6", "siteName": "\u5c4f\u6771\u7e23\u7e23\u7acb\u5510\u69ae\u570b\u5c0f(2018)", "gps_lat": 22.671, "gps_lon": 120.485, "pm2.5": 6.3, "humidity": 100.0, "temperature": 27.737000000000002}, {"deviceId": "74DA38F20C6A", "siteName": "\u9ad8\u96c4\u5e02\u5e02\u7acb\u5146\u6e58\u570b\u5c0f(2018)", "gps_lat": 22.784, "gps_lon": 120.286, "pm2.5": 14.666666666666666, "humidity": 100.0, "temperature": 28.715555555555554}, {"deviceId": "74DA38F20C26", "siteName": "\u9ad8\u96c4\u5e02\u5e02\u7acb\u5927\u7063\u570b\u4e2d(2018)", "gps_lat": 22.676, "gps_lon": 120.342, "pm2.5": 7.1, "humidity": 77.4, "temperature": 31.43}, {"deviceId": "74DA38F20C22", "siteName": "\u9ad8\u96c4\u5e02\u5e02\u7acb\u5927\u793e\u570b\u4e2d(2018)", "gps_lat": 22.729, "gps_lon": 120.357, "pm2.5": 0.0, "humidity": 100.0, "temperature": 28.76777777777778}, {"deviceId": "74DA38F20C0A", "siteName": "\u9ad8\u96c4\u5e02\u5e02\u7acb\u5927\u5bee\u570b\u4e2d(2018)", "gps_lat": 22.603, "gps_lon": 120.392, "pm2.5": 9.3, "humidity": 100.0, "temperature": 28.034000000000002}, {"deviceId": "74DA38F20C08", "siteName": "\u65b0\u7af9\u7e23\u7e23\u7acb\u6a6b\u5c71\u570b\u5c0f(2018)", "gps_lat": 24.718, "gps_lon": 121.115, "pm2.5": 22.8, "humidity": 70.4, "temperature": 25.684000000000005}, {"deviceId": "74DA38F20BF6", "siteName": "\u9ad8\u96c4\u5e02\u5e02\u7acb\u660e\u7fa9\u570b\u4e2d(2018)", "gps_lat": 22.582, "gps_lon": 120.368, "pm2.5": 1.3333333333333333, "humidity": 100.0, "temperature": 30.012222222222224}, {"deviceId": "74DA38F20BF4", "siteName": "\u9ad8\u96c4\u5e02\u5e02\u7acb\u4e2d\u5c71\u570b\u4e2d(2018)", "gps_lat": 22.566, "gps_lon": 120.356, "pm2.5": 12.8, "humidity": 100.0, "temperature": 28.619000000000007}, {"deviceId": "74DA38F20BE4", "siteName": "\u65b0\u7af9\u7e23\u7e23\u7acb\u9577\u5b89\u570b\u5c0f(2018)", "gps_lat": 24.791, "gps_lon": 120.957, "pm2.5": 22.77777777777778, "humidity": 100.0, "temperature": 29.727777777777778}, {"deviceId": "74DA38F20BD0", "siteName": "\u9ad8\u96c4\u5e02\u5e02\u7acb\u9f8d\u76ee\u570b\u5c0f(2018)", "gps_lat": 22.688, "gps_lon": 120.408, "pm2.5": 11.333333333333334, "humidity": 0.0, "temperature": -4.0}, {"deviceId": "74DA38F20BBE", "siteName": "\u9ad8\u96c4\u5e02\u5e02\u7acb\u4e94\u798f\u570b\u5c0f(2018)", "gps_lat": 22.589, "gps_lon": 120.325, "pm2.5": 9.5, "humidity": 100.0, "temperature": 29.119}, {"deviceId": "74DA38F20BB6", "siteName": "\u9ad8\u96c4\u5e02\u5e02\u7acb\u745e\u7965\u9ad8\u4e2d(2018)", "gps_lat": 22.6, "gps_lon": 120.324, "pm2.5": 6.625, "humidity": 92.625, "temperature": 29.2425}, {"deviceId": "74DA38F20B88", "siteName": "\u9ad8\u96c4\u5e02\u5e02\u7acb\u8208\u7cd6\u570b\u5c0f(2018)", "gps_lat": 22.75, "gps_lon": 120.316, "pm2.5": 0.0, "humidity": 100.0, "temperature": 27.560000000000002}, {"deviceId": "74DA38F20B82", "siteName": "\u9ad8\u96c4\u5e02\u5e02\u7acb\u6eaa\u6d32\u570b\u5c0f(2018)", "gps_lat": 22.847, "gps_lon": 120.465, "pm2.5": 0.0, "humidity": 69.44444444444444, "temperature": 27.10777777777778}, {"deviceId": "74DA38F20B5C", "siteName": "\u9ad8\u96c4\u5e02\u5e02\u7acb\u58fd\u5929\u570b\u5c0f(2018)", "gps_lat": 22.798, "gps_lon": 120.293, "pm2.5": 12.7, "humidity": 100.0, "temperature": 29.388000000000005}, {"deviceId": "74DA38F20B42", "siteName": "\u57fa\u9686\u5e02\u7acb\u4e2d\u5c71\u9ad8\u4e2d\u9644\u8a2d\u570b\u4e2d(2018)", "gps_lat": 25.154, "gps_lon": 121.731, "pm2.5": 0.1111111111111111, "humidity": 100.0, "temperature": 29.008888888888894}, {"deviceId": "74DA38F20B26", "siteName": "\u9ad8\u96c4\u5e02\u5e02\u7acb\u5f4c\u9640\u570b\u5c0f(2018)", "gps_lat": 22.783, "gps_lon": 120.247, "pm2.5": 8.666666666666666, "humidity": 100.0, "temperature": 29.990000000000002}, {"deviceId": "74DA38F20B22", "siteName": "\u9ad8\u96c4\u5e02\u5e02\u7acb\u6c38\u5b89\u570b\u5c0f(2018)", "gps_lat": 22.812, "gps_lon": 120.228, "pm2.5": 0.0, "humidity": 100.0, "temperature": 29.869999999999997}, {"deviceId": "74DA38F20B1C", "siteName": "\u9ad8\u96c4\u5e02\u5e02\u7acb\u6210\u529f\u570b\u5c0f(2018)", "gps_lat": 22.888, "gps_lon": 120.185, "pm2.5": 10.666666666666666, "humidity": 91.66666666666667, "temperature": 31.758888888888887}, {"deviceId": "74DA38F20AFC", "siteName": "\u9ad8\u96c4\u5e02\u5e02\u7acb\u9cf3\u7532\u570b\u4e2d(2018)", "gps_lat": 22.616, "gps_lon": 120.342, "pm2.5": 7.9, "humidity": 72.8, "temperature": 30.972}, {"deviceId": "74DA38F20AF0", "siteName": "\u65b0\u7af9\u7e23\u7e23\u7acb\u516d\u5bb6\u570b\u5c0f(2018)", "gps_lat": 25.062, "gps_lon": 121.451, "pm2.5": 0.0, "humidity": 0.0, "temperature": -4.0}, {"deviceId": "74DA38F20AEC", "siteName": "\u57fa\u9686\u5e02\u7acb\u6e2f\u897f\u570b\u5c0f(2018)", "gps_lat": 25.1, "gps_lon": 121.737, "pm2.5": 31.9, "humidity": 81.3, "temperature": 27.737000000000002}, {"deviceId": "74DA38F20AAE", "siteName": "\u53f0\u6771\u7e23\u7e23\u7acb\u842c\u5b89\u570b\u5c0f(2018)", "gps_lat": 23.095, "gps_lon": 121.218, "pm2.5": 5.7, "humidity": 100.0, "temperature": 27.51}, {"deviceId": "74DA38F20AA4", "siteName": "\u5c4f\u6771\u7e23\u7e23\u7acb\u4fe1\u7fa9\u570b\u5c0f(2018)", "gps_lat": 22.685, "gps_lon": 120.492, "pm2.5": 5.5, "humidity": 100.0, "temperature": 30.088000000000005}, {"deviceId": "74DA38F20A7C", "siteName": "\u57fa\u9686\u5e02\u7acb\u6696\u6696\u570b\u5c0f(2018)", "gps_lat": 25.1, "gps_lon": 121.737, "pm2.5": 0.0, "humidity": 100.0, "temperature": 27.706666666666667}, {"deviceId": "74DA38F20A34", "siteName": "\u9ad8\u96c4\u5e02\u5e02\u7acb\u660e\u5b97\u570b\u5c0f(2018)", "gps_lat": 22.906, "gps_lon": 120.222, "pm2.5": 0.0, "humidity": 100.0, "temperature": 29.10777777777778}, {"deviceId": "74DA38F20A18", "siteName": "\u9ad8\u96c4\u5e02\u5e02\u7acb\u8304\u8423\u570b\u5c0f(2018)", "gps_lat": 22.903, "gps_lon": 120.181, "pm2.5": 26.833333333333332, "humidity": 0.0, "temperature": -4.0}, {"deviceId": "74DA38F20A12", "siteName": "\u9ad8\u96c4\u5e02\u5e02\u7acb\u6cb9\u5ee0\u570b\u5c0f(2018)", "gps_lat": 22.709, "gps_lon": 120.302, "pm2.5": 12.6, "humidity": 100.0, "temperature": 30.063000000000006}, {"deviceId": "74DA38F20A10", "siteName": "\u9ad8\u96c4\u5e02\u5e02\u7acb\u4fe1\u7fa9\u570b\u5c0f(2018)", "gps_lat": 22.631, "gps_lon": 120.311, "pm2.5": 9.666666666666666, "humidity": 100.0, "temperature": 29.311111111111114}, {"deviceId": "74DA38F20A0C", "siteName": "\u9ad8\u96c4\u5e02\u5e02\u7acb\u4e03\u8ce2\u570b\u5c0f(2018)", "gps_lat": 22.634, "gps_lon": 120.306, "pm2.5": 7.9, "humidity": 98.8, "temperature": 30.063000000000006}, {"deviceId": "74DA38F209F8", "siteName": "\u53f0\u6771\u7e23\u7e23\u7acb\u5fe0\u5b5d\u570b\u5c0f(2018)", "gps_lat": 23.157, "gps_lon": 121.4, "pm2.5": 0.0, "humidity": 100.0, "temperature": 28.65666666666667}, {"deviceId": "74DA38F209CA", "siteName": "\u9ad8\u96c4\u5e02\u5e02\u7acb\u65b0\u4e0a\u570b\u5c0f(2018)", "gps_lat": 22.656928, "gps_lon": 120.310983, "pm2.5": 10.0, "humidity": 63.5, "temperature": 29.241000000000003}, {"deviceId": "74DA38F209B2", "siteName": "\u5c4f\u6771\u7e23\u7e23\u7acb\u50d1\u5fb7\u570b\u5c0f(2018)", "gps_lat": 22.363, "gps_lon": 120.599, "pm2.5": 0.0, "humidity": 100.0, "temperature": 26.836000000000002}, {"deviceId": "74DA38F209A8", "siteName": "\u5c4f\u6771\u7e23\u7e23\u7acb\u6771\u6d77\u570b\u5c0f(2018)", "gps_lat": 22.401, "gps_lon": 120.577, "pm2.5": 21.0, "humidity": 0.0, "temperature": -4.0}, {"deviceId": "74DA38F20976", "siteName": "\u57fa\u9686\u5e02\u7acb\u5c1a\u667a\u570b\u5c0f(2018)", "gps_lat": 25.127, "gps_lon": 121.746, "pm2.5": 29.666666666666668, "humidity": 100.0, "temperature": 28.727777777777778}, {"deviceId": "74DA38F20934", "siteName": "\u53f0\u6771\u7e23\u7e23\u7acb\u6cf0\u6e90\u570b\u4e2d(2018)", "gps_lat": 23.002, "gps_lon": 121.29, "pm2.5": 6.125, "humidity": 66.0, "temperature": 30.110000000000007}, {"deviceId": "74DA38F2090A", "siteName": "\u5c4f\u6771\u7e23\u7e23\u7acb\u842c\u65b0\u570b\u4e2d(2018)", "gps_lat": 22.562, "gps_lon": 120.491, "pm2.5": 0.0, "humidity": 100.0, "temperature": 28.755000000000003}, {"deviceId": "74DA38F208E2", "siteName": "\u5b9c\u862d\u7e23\u7e23\u7acb\u7af9\u6797\u570b\u5c0f(2018)", "gps_lat": 24.688, "gps_lon": 121.766, "pm2.5": 29.0, "humidity": 100.0, "temperature": 28.922222222222224}, {"deviceId": "74DA38F20818", "siteName": "\u5b9c\u862d\u7e23\u7e23\u7acb\u80b2\u82f1\u570b\u5c0f(2018)", "gps_lat": 24.64, "gps_lon": 121.833, "pm2.5": 32.3, "humidity": 89.2, "temperature": 29.28}, {"deviceId": "74DA38F207DE", "siteName": "\u9ad8\u96c4\u5e02\u5e02\u7acb\u6b63\u7fa9\u570b\u5c0f(2018)", "gps_lat": 22.603, "gps_lon": 120.34, "pm2.5": 10.1, "humidity": 100.0, "temperature": 28.813000000000006}, {"deviceId": "74DA38F16700", "siteName": "Ktest", "gps_lat": 25.03, "gps_lon": 121.527, "pm2.5": 22.0, "humidity": 100.0, "temperature": 28.925555555555555}, {"deviceId": "74DA38ED07EE", "siteName": "cb00456", "gps_lat": 25.03, "gps_lon": 121.527, "pm2.5": 0.7777777777777778, "humidity": 81.88888888888889, "temperature": 30.203333333333337}, {"deviceId": "74DA38ED07E2", "siteName": "cb00445", "gps_lat": 24.993, "gps_lon": 121.497, "pm2.5": 12.555555555555555, "humidity": 70.44444444444444, "temperature": 28.39888888888889}, {"deviceId": "74DA38ED07D2", "siteName": "fdps1F", "gps_lat": 23.914, "gps_lon": 120.541, "pm2.5": 38.4, "humidity": 67.0, "temperature": 29.360000000000007}, {"deviceId": "74DA38ED07C2", "siteName": "airbox", "gps_lat": 25.015, "gps_lon": 121.415, "pm2.5": 1.0, "humidity": 54.1, "temperature": 30.752000000000002}, {"deviceId": "74DA38ED07C0", "siteName": "02\u767d\u6c99\u570b\u5c0f\u5e7c\u5152\u5712", "gps_lat": 22.35, "gps_lon": 120.386, "pm2.5": 16.2, "humidity": 78.8, "temperature": 28.566000000000003}, {"deviceId": "74DA38ED0756", "siteName": "\u82b1\u84ee\u7e23\u7acb\u9cf3\u4ec1\u570b\u5c0f(2018)", "gps_lat": 23.75, "gps_lon": 121.451, "pm2.5": 0.0, "humidity": 100.0, "temperature": 29.419}, {"deviceId": "74DA38ED0742", "siteName": "\u516d\u6a13\u524d\u967d\u53f0  \u65b0\u5317\u5e02\u4e09\u91cd\u5340\u529b\u884c\u8def\u4e00\u6bb5178\u5df721\u865f\u516d\u6a13", "gps_lat": 25.071, "gps_lon": 121.481, "pm2.5": 17.77777777777778, "humidity": 67.66666666666667, "temperature": 30.43444444444445}, {"deviceId": "74DA38ED073E", "siteName": "\u592a\u548c\u6771\u8857_\u967d\u53f0\u62bd\u7159\u7684\u53bbX", "gps_lat": 24.165, "gps_lon": 120.726, "pm2.5": 16.5, "humidity": 100.0, "temperature": 28.207000000000004}, {"deviceId": "74DA38ED0736", "siteName": "JCES_AirBox1", "gps_lat": 23.101, "gps_lon": 120.158, "pm2.5": 11.4, "humidity": 100.0, "temperature": 28.574000000000005}, {"deviceId": "74DA38ED070E", "siteName": "cb00470", "gps_lat": 24.991, "gps_lon": 121.493, "pm2.5": 28.77777777777778, "humidity": 72.77777777777777, "temperature": 30.75}, {"deviceId": "74DA38ED06E0", "siteName": "\u82b1\u84ee\u7e23\u7acb\u8c50\u6ff1\u570b\u4e2d(2018)", "gps_lat": 23.601, "gps_lon": 121.521, "pm2.5": 9.0, "humidity": 94.88888888888889, "temperature": 29.641111111111115}, {"deviceId": "74DA38ED06C0", "siteName": "\u82b1\u84ee\u7e23\u7acb\u5d07\u5fb7\u570b\u5c0f(2018)", "gps_lat": 24.162, "gps_lon": 121.652, "pm2.5": 12.3, "humidity": 100.0, "temperature": 30.863000000000007}, {"deviceId": "74DA38ED06A6", "siteName": "Chris", "gps_lat": 25.048, "gps_lon": 121.45, "pm2.5": 8.3, "humidity": 53.6, "temperature": 31.691000000000003}, {"deviceId": "74DA38ED0688", "siteName": "AI1001WV285CB00224", "gps_lat": 25.029, "gps_lon": 121.479, "pm2.5": 3.7, "humidity": 49.1, "temperature": 28.591}, {"deviceId": "74DA38ED067E", "siteName": "\u53f0\u5927\u91ab\u9662\u79d81", "gps_lat": 25.025, "gps_lon": 121.523, "pm2.5": 4.7, "humidity": 66.0, "temperature": 25.846000000000004}, {"deviceId": "74DA38ED0676", "siteName": "\u53f0\u5927\u91ab\u9662\u5de5", "gps_lat": 25.025, "gps_lon": 121.523, "pm2.5": 6.8, "humidity": 60.8, "temperature": 23.133000000000003}, {"deviceId": "74DA38ED0672", "siteName": "cb00282", "gps_lat": 25.059, "gps_lon": 121.529, "pm2.5": 5.5, "humidity": 69.0, "temperature": 30.736}, {"deviceId": "74DA38ED065E", "siteName": "\u4e16\u6770", "gps_lat": 25.036, "gps_lon": 121.443, "pm2.5": 6.0, "humidity": 48.9, "temperature": 27.271000000000004}, {"deviceId": "74DA38ED064E", "siteName": "\u81fa\u4e2d\u5e02\u7acb\u6771\u5340\u81fa\u4e2d\u5bb6\u5546", "gps_lat": 24.133, "gps_lon": 120.684, "pm2.5": 19.333333333333332, "humidity": 71.33333333333333, "temperature": 29.703333333333333}, {"deviceId": "74DA38ED0640", "siteName": "\u82b1\u84ee\u7e23\u7acb\u6c38\u8c50\u570b\u5c0f(2018)", "gps_lat": 23.154, "gps_lon": 121.266, "pm2.5": 8.7, "humidity": 100.0, "temperature": 27.297000000000004}, {"deviceId": "74DA38ED05EA", "siteName": "\u82b1\u84ee\u7e23\u7acb\u9ad8\u5bee\u570b\u5c0f(2018)", "gps_lat": 23.394, "gps_lon": 121.357, "pm2.5": 10.7, "humidity": 100.0, "temperature": 28.574000000000005}, {"deviceId": "74DA38ED05BC", "siteName": "\u5e2b\u5927\u9644\u4e2d", "gps_lat": 25.034, "gps_lon": 121.541, "pm2.5": 15.666666666666666, "humidity": 100.0, "temperature": 30.441111111111113}, {"deviceId": "74DA38ED05B6", "siteName": "\u82b1\u84ee\u7e23\u7acb\u4e09\u6c11\u570b\u5c0f(2018)", "gps_lat": 23.43, "gps_lon": 121.348, "pm2.5": 10.8, "humidity": 100.0, "temperature": 28.891000000000002}, {"deviceId": "74DA38ED059C", "siteName": "\u82b1\u84ee\u7e23\u7acb\u660e\u5229\u570b\u5c0f(2018)", "gps_lat": 23.706, "gps_lon": 121.412, "pm2.5": 13.8, "humidity": 100.0, "temperature": 28.184000000000005}, {"deviceId": "74DA38ED056E", "siteName": "\u611b\u82af", "gps_lat": 25.04, "gps_lon": 121.454, "pm2.5": 1.0, "humidity": 49.3, "temperature": 28.119}, {"deviceId": "74DA38ED051E", "siteName": "\u53f0\u5927\u91ab\u9662\u79d84", "gps_lat": 25.044, "gps_lon": 121.515, "pm2.5": 6.1, "humidity": 58.0, "temperature": 28.032999999999998}, {"deviceId": "74DA38ED051A", "siteName": "\u53f0\u5927\u91ab\u9662\u79d83", "gps_lat": 25.06, "gps_lon": 121.53, "pm2.5": 5.0, "humidity": 61.2, "temperature": 22.096000000000004}, {"deviceId": "74DA38ED0514", "siteName": "Mosq", "gps_lat": 25.041, "gps_lon": 121.522, "pm2.5": 9.8, "humidity": 69.5, "temperature": 26.048000000000002}, {"deviceId": "74DA38ED04EA", "siteName": "\u6797\u5747\u6cd3", "gps_lat": 25.059, "gps_lon": 121.461, "pm2.5": 1.0, "humidity": 51.4, "temperature": 29.73}, {"deviceId": "74DA38ED0476", "siteName": "edimaxair", "gps_lat": 25.067, "gps_lon": 121.477, "pm2.5": 8.8, "humidity": 66.2, "temperature": 32.03}, {"deviceId": "74DA38ED0458", "siteName": "cb00165", "gps_lat": 25.003, "gps_lon": 121.5, "pm2.5": 7.1, "humidity": 55.8, "temperature": 29.416000000000004}, {"deviceId": "74DA38ED0454", "siteName": "\u82b1\u84ee\u7e23\u7acb\u4f73\u6c11\u570b\u5c0f(2018)", "gps_lat": 24.053, "gps_lon": 121.599, "pm2.5": 20.11111111111111, "humidity": 100.0, "temperature": 29.314444444444444}, {"deviceId": "74DA38ED0424", "siteName": "\u91d1\u9580\u9ad8\u4e2d\u6559\u52d9\u8655", "gps_lat": 24.435, "gps_lon": 118.314, "pm2.5": 27.5, "humidity": 100.0, "temperature": 27.061}, {"deviceId": "74DA38EBF95E", "siteName": "Wufu", "gps_lat": 23.909, "gps_lon": 120.541, "pm2.5": 32.5, "humidity": 100.0, "temperature": 29.869}, {"deviceId": "74DA38EBF95C", "siteName": "\u8857\u5c3e\u9752\u96f2", "gps_lat": 24.048, "gps_lon": 120.436, "pm2.5": 41.44444444444444, "humidity": 100.0, "temperature": 30.83555555555556}, {"deviceId": "74DA38EBF950", "siteName": "1GIEE406NTNU", "gps_lat": 25.007, "gps_lon": 121.536, "pm2.5": 20.444444444444443, "humidity": 65.11111111111111, "temperature": 31.696666666666673}, {"deviceId": "74DA38EBF948", "siteName": "\u7fca\u8d85\u8fb2\u5834", "gps_lat": 24.422, "gps_lon": 120.689, "pm2.5": 0.0, "humidity": 100.0, "temperature": 27.913333333333338}, {"deviceId": "74DA38EBF942", "siteName": "THU_USR_22(2019)", "gps_lat": 24.183, "gps_lon": 120.589, "pm2.5": 21.0, "humidity": 100.0, "temperature": 28.01285714285714}, {"deviceId": "74DA38EBF938", "siteName": "Sam house", "gps_lat": 22.611, "gps_lon": 120.323, "pm2.5": 7.8, "humidity": 66.0, "temperature": 29.044000000000004}, {"deviceId": "74DA38EBF926", "siteName": "\u661f\u6cb3", "gps_lat": 25.042, "gps_lon": 121.291, "pm2.5": 20.2, "humidity": 93.3, "temperature": 26.322000000000003}, {"deviceId": "74DA38EBF90C", "siteName": "LM_\u76ee\u52a0\u6e9c\u7063", "gps_lat": 23.119, "gps_lon": 120.306, "pm2.5": 8.5, "humidity": 100.0, "temperature": 28.093}, {"deviceId": "74DA38EBF908", "siteName": "NSYSU MEM", "gps_lat": 22.626, "gps_lon": 120.266, "pm2.5": 10.1, "humidity": 71.0, "temperature": 32.18}, {"deviceId": "74DA38EBF902", "siteName": "third brother food", "gps_lat": 23.477, "gps_lon": 120.454, "pm2.5": 3.8333333333333335, "humidity": 0.0, "temperature": -4.0}, {"deviceId": "74DA38EBF8F2", "siteName": "Todd", "gps_lat": 24.191, "gps_lon": 120.61, "pm2.5": 30.22222222222222, "humidity": 88.0, "temperature": 28.573333333333338}, {"deviceId": "74DA38EBF8E6", "siteName": "Steph Xinhai", "gps_lat": 24.998, "gps_lon": 121.552, "pm2.5": 11.8, "humidity": 90.0, "temperature": 32.255}, {"deviceId": "74DA38EBF8E0", "siteName": "AirSupply", "gps_lat": 25.015, "gps_lon": 121.317, "pm2.5": 30.0, "humidity": 78.1, "temperature": 30.349000000000007}, {"deviceId": "74DA38EBF8DA", "siteName": "LiDeStreetLANE98NO66", "gps_lat": 25.008, "gps_lon": 121.487, "pm2.5": 29.444444444444443, "humidity": 69.88888888888889, "temperature": 30.990000000000002}, {"deviceId": "74DA38EBF8D2", "siteName": "\u95dc\u6e21\u81ea\u7136\u516c\u5712-\u81ea\u7136\u4e2d\u5fc3", "gps_lat": 25.119, "gps_lon": 121.471, "pm2.5": 0.0, "humidity": 0.0, "temperature": -4.0}, {"deviceId": "74DA38EBF898", "siteName": "\u540d\u4eba\u5c0a\u54c1", "gps_lat": 24.948, "gps_lon": 121.379, "pm2.5": 30.444444444444443, "humidity": 100.0, "temperature": 29.51777777777778}, {"deviceId": "74DA38EBF83E", "siteName": "\u660e\u8aa0\u4e00\u8def\u771f\u611b\u5927\u6a1310F\u967d\u53f0(\u5ba4\u5916)", "gps_lat": 22.66, "gps_lon": 120.323, "pm2.5": 11.88888888888889, "humidity": 97.77777777777777, "temperature": 30.363333333333337}, {"deviceId": "74DA38EBF83C", "siteName": "\u83ef\u5357\u9280\u884c", "gps_lat": 25.029, "gps_lon": 121.501, "pm2.5": 21.666666666666668, "humidity": 100.0, "temperature": 30.413333333333338}, {"deviceId": "74DA38EBF824", "siteName": "\u8010\u7279\u8cc7\u8a0a", "gps_lat": 24.157, "gps_lon": 120.658, "pm2.5": 7.0, "humidity": 59.0, "temperature": 25.472}, {"deviceId": "74DA38EBF822", "siteName": "7-11", "gps_lat": 24.308, "gps_lon": 120.73, "pm2.5": 31.333333333333332, "humidity": 86.55555555555556, "temperature": 28.04888888888889}, {"deviceId": "74DA38EBF820", "siteName": "\u5927\u96ea\u5c71\u751f\u614b\u793e\u5340", "gps_lat": 24.238, "gps_lon": 120.908, "pm2.5": 16.5, "humidity": 100.0, "temperature": 23.023000000000003}, {"deviceId": "74DA38EBF816", "siteName": "\u4e5d\u5982\u4e00\u8def186\u5df7", "gps_lat": 22.638, "gps_lon": 120.338, "pm2.5": 15.2, "humidity": 75.6, "temperature": 30.813000000000006}, {"deviceId": "74DA38EBF804", "siteName": "\u5927\u667a\u8857179\u5df7", "gps_lat": 25.072, "gps_lon": 121.49, "pm2.5": 23.6, "humidity": 100.0, "temperature": 29.544}, {"deviceId": "74DA38EBF7F6", "siteName": "earth", "gps_lat": 25.186, "gps_lon": 121.444, "pm2.5": 4.9, "humidity": 51.0, "temperature": 31.533000000000005}, {"deviceId": "74DA38EBF7E2", "siteName": "\u6749\u73cd\u6a5f\u8eca", "gps_lat": 23.737, "gps_lon": 120.76, "pm2.5": 0.0, "humidity": 100.0, "temperature": 27.222}, {"deviceId": "74DA38EBF77A", "siteName": "gostar330", "gps_lat": 24.791, "gps_lon": 121.01, "pm2.5": 5.8, "humidity": 52.9, "temperature": 29.241000000000003}, {"deviceId": "74DA38EBF75C", "siteName": "Wen", "gps_lat": 23.704, "gps_lon": 120.544, "pm2.5": 5.777777777777778, "humidity": 51.0, "temperature": 28.063333333333333}, {"deviceId": "74DA38EBF74E", "siteName": "taichung16", "gps_lat": 24.136, "gps_lon": 120.636, "pm2.5": 8.8, "humidity": 100.0, "temperature": 28.711000000000002}, {"deviceId": "74DA38EBF740", "siteName": "\u65e5\u5149\u884c\u8218\u7b2c\u4e8c\u671f", "gps_lat": 23.01, "gps_lon": 120.222, "pm2.5": 18.6, "humidity": 100.0, "temperature": 33.019}, {"deviceId": "74DA38EBF704", "siteName": "THU_USR_06(2019)", "gps_lat": 24.299, "gps_lon": 120.577, "pm2.5": 15.9, "humidity": 100.0, "temperature": 29.119}, {"deviceId": "74DA38EBF700", "siteName": "airbox_ edimax", "gps_lat": 25.076, "gps_lon": 121.375, "pm2.5": 14.88888888888889, "humidity": 58.44444444444444, "temperature": 28.82666666666667}, {"deviceId": "74DA38EBF6DE", "siteName": "NSYSUCHEM", "gps_lat": 22.626, "gps_lon": 120.266, "pm2.5": 4.6, "humidity": 67.2, "temperature": 28.497000000000003}, {"deviceId": "74DA38EBF6CC", "siteName": "\u967d\u660e\u7167\u76f8\u9928_\u5ba4\u5167", "gps_lat": 22.645, "gps_lon": 120.344, "pm2.5": 0.0, "humidity": 55.22222222222222, "temperature": 30.326666666666668}, {"deviceId": "74DA38EBF6CA", "siteName": "Peter", "gps_lat": 22.649, "gps_lon": 120.318, "pm2.5": 7.333333333333333, "humidity": 54.22222222222222, "temperature": 26.78888888888889}, {"deviceId": "74DA38EBF6A8", "siteName": "\u5438\u597d\u7a7a\u6c23\u662f\u4eba\u6b0a-\u6771\u52e2\u777f\u5bb6", "gps_lat": 24.263, "gps_lon": 120.826, "pm2.5": 28.5, "humidity": 100.0, "temperature": 25.098000000000003}, {"deviceId": "74DA38EBF68E", "siteName": "\u6b78\u4ec1 \u6c11\u751f\u516b\u8857 home", "gps_lat": 22.962, "gps_lon": 120.279, "pm2.5": 4.333333333333333, "humidity": 88.11111111111111, "temperature": 30.33555555555556}, {"deviceId": "74DA38EBF68C", "siteName": "LeoH", "gps_lat": 25.096, "gps_lon": 121.738, "pm2.5": 2.9, "humidity": 89.1, "temperature": 26.048000000000002}, {"deviceId": "74DA38EBF656", "siteName": "\u65b0\u653f\u4ec1\u611b", "gps_lat": 24.35, "gps_lon": 120.619, "pm2.5": 28.7, "humidity": 100.0, "temperature": 29.852000000000004}, {"deviceId": "74DA38EBF64A", "siteName": "Vincent Airbox \uff08\u5ba4\u5167\uff09", "gps_lat": 24.815, "gps_lon": 121.016, "pm2.5": 3.0, "humidity": 0.0, "temperature": -4.0}, {"deviceId": "74DA38EBF646", "siteName": "LI", "gps_lat": 24.182, "gps_lon": 120.621, "pm2.5": 22.75, "humidity": 100.0, "temperature": 30.13875}, {"deviceId": "74DA38EBF624", "siteName": "\u81fa\u4e2d\u5e02\u570b\u7acb\u8208\u5927\u9644\u4e2d", "gps_lat": 24.109, "gps_lon": 120.682, "pm2.5": 28.0, "humidity": 100.0, "temperature": 29.855}, {"deviceId": "74DA38EBF61A", "siteName": "jjjjjjjjjjjjjj\u6642\u4ee3\u7235\u90b8j\u68df", "gps_lat": 22.682, "gps_lon": 120.32, "pm2.5": 9.0, "humidity": 73.66666666666667, "temperature": 28.962222222222223}, {"deviceId": "74DA38EBF600", "siteName": "\u4e2d\u5eb8\u8857223\u5df7", "gps_lat": 22.64, "gps_lon": 120.286, "pm2.5": 10.2, "humidity": 100.0, "temperature": 31.863000000000007}, {"deviceId": "74DA38EBF5D0", "siteName": "\u51a0\u6771&\u5efa\u8a8c\u92fc\u9435", "gps_lat": 22.774, "gps_lon": 120.345, "pm2.5": 23.2, "humidity": 100.0, "temperature": 27.584000000000003}, {"deviceId": "74DA38EBF5CE", "siteName": "\u9cf3\u5c71\u5340\u65b0\u5eb7\u8857\u9ad821\u516c\u5c3a\uff08\u967d\u53f0\uff09", "gps_lat": 22.61, "gps_lon": 120.344, "pm2.5": 12.8, "humidity": 100.0, "temperature": 29.469000000000005}, {"deviceId": "74DA38EBF5AE", "siteName": "Peterpen", "gps_lat": 24.195, "gps_lon": 120.686, "pm2.5": 8.88888888888889, "humidity": 69.0, "temperature": 30.75}, {"deviceId": "74DA38E794B4", "siteName": "TS_B4_V2", "gps_lat": 25.062576, "gps_lon": 121.582302, "pm2.5": 8.3, "humidity": 51.0, "temperature": 31.194}, {"deviceId": "74DA38E69E6C", "siteName": "airbox", "gps_lat": 25.057, "gps_lon": 121.432, "pm2.5": 26.1, "humidity": 81.0, "temperature": 30.802000000000003}, {"deviceId": "74DA38E69E54", "siteName": "\u6587\u5fc3\u7d93\u5178-\u5927\u5bb9\u897f\u8857", "gps_lat": 24.157, "gps_lon": 120.647, "pm2.5": 14.11111111111111, "humidity": 100.0, "temperature": 29.200000000000003}, {"deviceId": "74DA38E69E4A", "siteName": "\u6cb9\u5ee0\u4e0d\u5012\uff0c\u6843\u5712\u4e0d\u597d", "gps_lat": 25.017, "gps_lon": 121.308, "pm2.5": 32.4, "humidity": 100.0, "temperature": 30.994}, {"deviceId": "74DA38E69E48", "siteName": "office", "gps_lat": 24.174, "gps_lon": 120.719, "pm2.5": 1.9, "humidity": 54.5, "temperature": 26.762}, {"deviceId": "74DA38E69E36", "siteName": "\u862d\u6f6d\u908a\u5ba4\u5167", "gps_lat": 23.477, "gps_lon": 120.476, "pm2.5": 0.3333333333333333, "humidity": 56.0, "temperature": 30.860000000000007}, {"deviceId": "74DA38E69E1E", "siteName": "HomeWuri2f", "gps_lat": 24.102, "gps_lon": 120.62, "pm2.5": 29.0, "humidity": 100.0, "temperature": 30.18}, {"deviceId": "74DA38E69E14", "siteName": "NUTCdanny", "gps_lat": 24.15, "gps_lon": 120.683, "pm2.5": 3.4, "humidity": 62.7, "temperature": 29.75}, {"deviceId": "74DA38E69E0E", "siteName": "dBtech_tonychou", "gps_lat": 25.06, "gps_lon": 121.648, "pm2.5": 17.7, "humidity": 59.7, "temperature": 27.774}, {"deviceId": "74DA38E69E0A", "siteName": "\u68d5\u6ada\u6cc9 \u6236\u5916 1F", "gps_lat": 22.985, "gps_lon": 120.243, "pm2.5": 13.444444444444445, "humidity": 100.0, "temperature": 33.18777777777778}, {"deviceId": "74DA38E69E08", "siteName": "kevin home", "gps_lat": 25.023, "gps_lon": 121.502, "pm2.5": 5.8, "humidity": 60.4, "temperature": 28.93}, {"deviceId": "74DA38E69DCC", "siteName": "\u6642\u4ee3\u89c0\u90b8 \u6236\u5916\u967d\u53f0", "gps_lat": 24.811, "gps_lon": 121.027, "pm2.5": 22.8, "humidity": 77.2, "temperature": 34.472}, {"deviceId": "74DA38E69DB4", "siteName": "\u96f2\u6797\u7e23\u897f\u87ba\u93ae\u4e5d\u9686", "gps_lat": 23.753, "gps_lon": 120.432, "pm2.5": 22.9, "humidity": 87.4, "temperature": 30.638000000000005}, {"deviceId": "74DA38E69DA4", "siteName": "Jacky \u7a7a\u6c23\u76d2\u5b50", "gps_lat": 24.677, "gps_lon": 120.862, "pm2.5": 6.1, "humidity": 80.2, "temperature": 27.909000000000002}, {"deviceId": "74DA38E69D98", "siteName": "myPM2.5_98", "gps_lat": 22.615, "gps_lon": 120.349, "pm2.5": 0.1, "humidity": 62.3, "temperature": 26.884000000000004}, {"deviceId": "74DA38E69D80", "siteName": "WonderHome", "gps_lat": 22.987, "gps_lon": 120.197, "pm2.5": 12.8, "humidity": 100.0, "temperature": 27.26}, {"deviceId": "74DA38E69D66", "siteName": "tcf0315", "gps_lat": 24.82, "gps_lon": 121.027, "pm2.5": 32.333333333333336, "humidity": 89.11111111111111, "temperature": 28.338888888888896}, {"deviceId": "74DA38E69D62", "siteName": "EDIMAX-CTP", "gps_lat": 24.135, "gps_lon": 120.637, "pm2.5": 18.125, "humidity": 76.25, "temperature": 27.558750000000003}, {"deviceId": "74DA38E69D60", "siteName": "\u88d5\u6587\u8def\u89c0\u6e2c\u9ede1", "gps_lat": 22.982, "gps_lon": 120.247, "pm2.5": 7.666666666666667, "humidity": 44.77777777777778, "temperature": 30.030000000000005}, {"deviceId": "74DA38E69D54", "siteName": "\u65b0\u6a39\u8def258\u5df71\u865f1\u6a13", "gps_lat": 25.014, "gps_lon": 121.431, "pm2.5": 16.6, "humidity": 54.0, "temperature": 30.458000000000006}, {"deviceId": "74DA38E69D30", "siteName": "Lan-EdiGreen", "gps_lat": 25.003, "gps_lon": 121.537, "pm2.5": 2.0, "humidity": 46.3, "temperature": 30.052000000000003}, {"deviceId": "74DA38E69D2E", "siteName": "C501", "gps_lat": 22.734, "gps_lon": 120.278, "pm2.5": 6.0, "humidity": 65.11111111111111, "temperature": 27.706666666666667}, {"deviceId": "74DA38E69D2A", "siteName": "\u65b0\u6a39\u8def258\u5df71\u865f", "gps_lat": 25.015, "gps_lon": 121.43, "pm2.5": 32.0, "humidity": 70.0, "temperature": 30.308000000000003}, {"deviceId": "74DA38E69D28", "siteName": "\u57e4\u8c50\u6a4bP2", "gps_lat": 24.28, "gps_lon": 120.759, "pm2.5": 34.9, "humidity": 100.0, "temperature": 24.211000000000002}, {"deviceId": "74DA38E69D22", "siteName": "martin air", "gps_lat": 25.0, "gps_lon": 121.431, "pm2.5": 32.6, "humidity": 73.4, "temperature": 29.969000000000005}, {"deviceId": "74DA38E69D04", "siteName": "martin home \u5f8c\u967d\u53f0", "gps_lat": 25.0, "gps_lon": 121.43, "pm2.5": 30.9, "humidity": 62.3, "temperature": 33.227000000000004}, {"deviceId": "74DA38E69CF0", "siteName": "Academia", "gps_lat": 25.045, "gps_lon": 121.613, "pm2.5": 18.7, "humidity": 73.4, "temperature": 30.533000000000005}, {"deviceId": "74DA38E69CD6", "siteName": "\u57e4\u8c50\u6a4bA1", "gps_lat": 24.282, "gps_lon": 120.759, "pm2.5": 34.333333333333336, "humidity": 100.0, "temperature": 24.38555555555556}, {"deviceId": "74DA38E69CD2", "siteName": "\u516d\u6a13\u5f8c\u967d\u53f0  \u65b0\u5317\u5e02\u4e09\u91cd\u5340\u529b\u884c\u8def\u4e00\u6bb5178\u5df721\u865f\u4e94\u6a13", "gps_lat": 25.071, "gps_lon": 121.481, "pm2.5": 31.5, "humidity": 61.2, "temperature": 32.18300000000001}, {"deviceId": "74DA38E69CCA", "siteName": "NPP_Tainan1", "gps_lat": 23.008, "gps_lon": 120.231, "pm2.5": 3.0, "humidity": 62.3, "temperature": 24.372000000000003}, {"deviceId": "74DA38E69CB8", "siteName": "Kun", "gps_lat": 22.983, "gps_lon": 120.218, "pm2.5": 10.3, "humidity": 100.0, "temperature": 31.669}, {"deviceId": "74DA38E69CB0", "siteName": "\u53f0\u5317\u7063\u7ba1\u7406\u4e2d\u5fc3", "gps_lat": 25.185, "gps_lon": 121.431, "pm2.5": 21.375, "humidity": 71.5, "temperature": 30.31875}, {"deviceId": "74DA38E69CAA", "siteName": "jxpc", "gps_lat": 25.067, "gps_lon": 121.447, "pm2.5": 11.8, "humidity": 57.5, "temperature": 31.341}, {"deviceId": "74DA38E69CA8", "siteName": "\u5317\u9580\u8fb2\u5de5", "gps_lat": 23.175, "gps_lon": 120.18, "pm2.5": 20.7, "humidity": 92.3, "temperature": 28.880000000000003}, {"deviceId": "74DA38E69CA4", "siteName": "Polly", "gps_lat": 22.684, "gps_lon": 120.311, "pm2.5": 9.7, "humidity": 81.4, "temperature": 30.866000000000003}, {"deviceId": "74DA38E69C8A", "siteName": "Taichung90", "gps_lat": 24.155, "gps_lon": 120.702, "pm2.5": 29.7, "humidity": 100.0, "temperature": 28.666000000000004}, {"deviceId": "74DA38E69C80", "siteName": "Chen", "gps_lat": 23.244, "gps_lon": 120.157, "pm2.5": 38.111111111111114, "humidity": 82.33333333333333, "temperature": 30.227777777777778}, {"deviceId": "74DA38E69C66", "siteName": "NTUPH", "gps_lat": 25.041, "gps_lon": 121.523, "pm2.5": 14.5, "humidity": 71.0, "temperature": 27.383000000000003}, {"deviceId": "74DA38E69C4C", "siteName": "Kanahei", "gps_lat": 24.994, "gps_lon": 121.495, "pm2.5": 32.7, "humidity": 84.6, "temperature": 30.866000000000003}, {"deviceId": "74DA38E69C48", "siteName": "TP Air", "gps_lat": 25.038, "gps_lon": 121.536, "pm2.5": 22.4, "humidity": 76.7, "temperature": 30.091}, {"deviceId": "74DA38E69C3C", "siteName": "\u4eba\u6587\u65b0\u5883\u7259\u91ab\u8a3a\u6240", "gps_lat": 23.481, "gps_lon": 120.49, "pm2.5": 7.7, "humidity": 100.0, "temperature": 26.122000000000003}, {"deviceId": "74DA38E69C32", "siteName": "\u660e\u79c0\u516c\u5712", "gps_lat": 24.205, "gps_lon": 120.571, "pm2.5": 28.7, "humidity": 73.3, "temperature": 29.533000000000005}, {"deviceId": "74DA38E69C26", "siteName": "NeiHu357", "gps_lat": 25.083, "gps_lon": 121.592, "pm2.5": 2.9, "humidity": 44.1, "temperature": 28.25}, {"deviceId": "74DA38E69C24", "siteName": "Double W", "gps_lat": 23.828, "gps_lon": 120.778, "pm2.5": 0.7, "humidity": 67.2, "temperature": 27.25}, {"deviceId": "74DA38E69C16", "siteName": "Jerry HomePM2.5", "gps_lat": 24.999, "gps_lon": 121.483, "pm2.5": 30.3, "humidity": 60.5, "temperature": 32.244}, {"deviceId": "74DA38E69C04", "siteName": "LakeSide Inside", "gps_lat": 24.786, "gps_lon": 121.008, "pm2.5": 0.0, "humidity": 100.0, "temperature": 30.012222222222224}, {"deviceId": "74DA38E69BE8", "siteName": "\u7acb\u68ee\u88dc\u7fd2\u73ed", "gps_lat": 22.677, "gps_lon": 120.302, "pm2.5": 13.9, "humidity": 60.5, "temperature": 29.166000000000004}, {"deviceId": "74DA38E69BE4", "siteName": "\u7dde\u7e7b\u6751\u5c0f\u6728\u5c4b", "gps_lat": 23.5247323, "gps_lon": 120.5966207, "pm2.5": 11.4, "humidity": 94.8, "temperature": 24.885}, {"deviceId": "74DA38E69BDA", "siteName": "\u4e94\u6a13\u524d\u967d\u53f0.\u65b0\u5317\u5e02\u4e09\u91cd\u5340\u529b\u884c\u8def\u4e00\u6bb5178\u5df721\u865f\u4e94\u6a13", "gps_lat": 25.071, "gps_lon": 121.481, "pm2.5": 23.4, "humidity": 63.2, "temperature": 31.522000000000002}, {"deviceId": "74DA38E69BCC", "siteName": "\u4e94\u6b0a\u4e03", "gps_lat": 24.135, "gps_lon": 120.661, "pm2.5": 26.1, "humidity": 74.3, "temperature": 29.613000000000007}, {"deviceId": "74DA38E69BC8", "siteName": "\u5929\u5e9c\u8def", "gps_lat": 24.839, "gps_lon": 120.932, "pm2.5": 28.1, "humidity": 70.0, "temperature": 31.852000000000004}, {"deviceId": "74DA38E69BC2", "siteName": "JW\u5bb6\u4e2d\u7a7a\u54c1", "gps_lat": 24.243, "gps_lon": 120.616, "pm2.5": 12.7, "humidity": 49.8, "temperature": 27.448}, {"deviceId": "74DA38E69BB4", "siteName": "\u65b0\u838a\u4e2d\u74b0\u8def\u4e00\u6bb5", "gps_lat": 25.031, "gps_lon": 121.442, "pm2.5": 27.555555555555557, "humidity": 76.0, "temperature": 30.37888888888889}, {"deviceId": "74DA38E69BB2", "siteName": "\u4fdd\u5be7\u793e\u5340", "gps_lat": 22.832, "gps_lon": 120.237, "pm2.5": 14.1, "humidity": 59.6, "temperature": 29.388000000000005}, {"deviceId": "74DA38E69BA2", "siteName": "Shipai", "gps_lat": 24.056, "gps_lon": 120.614, "pm2.5": 31.7, "humidity": 84.2, "temperature": 28.020999999999997}, {"deviceId": "74DA38E69BA0", "siteName": "\u6797\u79c0\u970f", "gps_lat": 23.162, "gps_lon": 120.181, "pm2.5": 19.0, "humidity": 71.0, "temperature": 30.272000000000002}, {"deviceId": "74DA38E69B9C", "siteName": "\u54e1\u57fa\u9644\u8fd1", "gps_lat": 23.964, "gps_lon": 120.568, "pm2.5": 17.9, "humidity": 100.0, "temperature": 31.263000000000005}, {"deviceId": "74DA38E69B9A", "siteName": "\u5927\u76db\u74b0\u4fdd-\uff08\u524d\uff09", "gps_lat": 24.213, "gps_lon": 120.509, "pm2.5": 38.2, "humidity": 100.0, "temperature": 28.247000000000003}, {"deviceId": "74DA38E69B98", "siteName": "\u4e09\u5c71\u56db\u5df7", "gps_lat": 22.712, "gps_lon": 120.283, "pm2.5": 12.7, "humidity": 72.9, "temperature": 31.708000000000006}, {"deviceId": "74DA38E69B8C", "siteName": "Wenqian Road ", "gps_lat": 22.664, "gps_lon": 120.356, "pm2.5": 14.6, "humidity": 100.0, "temperature": 29.444}, {"deviceId": "74DA38E69B86", "siteName": "greatest", "gps_lat": 22.565, "gps_lon": 120.343, "pm2.5": 1.0, "humidity": 66.66666666666667, "temperature": 33.03666666666667}, {"deviceId": "74DA38E69B7C", "siteName": "2024 stp", "gps_lat": 22.905, "gps_lon": 120.272, "pm2.5": 0.0, "humidity": 67.0, "temperature": 28.986}, {"deviceId": "74DA38E69B68", "siteName": "House4F", "gps_lat": 24.154, "gps_lon": 120.723, "pm2.5": 7.5, "humidity": 53.7, "temperature": 24.273000000000003}, {"deviceId": "74DA38E69B62", "siteName": "MomoAirPM25", "gps_lat": 23.029, "gps_lon": 120.222, "pm2.5": 12.333333333333334, "humidity": 96.66666666666667, "temperature": 29.203333333333337}, {"deviceId": "74DA38E69B54", "siteName": "633", "gps_lat": 24.97, "gps_lon": 121.186, "pm2.5": 17.22222222222222, "humidity": 64.66666666666667, "temperature": 24.45555555555556}, {"deviceId": "74DA38E69B4E", "siteName": "AirBox40347", "gps_lat": 24.135, "gps_lon": 120.659, "pm2.5": 9.0, "humidity": 65.0, "temperature": 30.772000000000002}, {"deviceId": "74DA38E69B4C", "siteName": "\u7a7a\u6c23\u76d2\u5b50", "gps_lat": 23.755, "gps_lon": 120.665, "pm2.5": 18.3, "humidity": 79.9, "temperature": 28.905}, {"deviceId": "74DA38E69B4A", "siteName": "\u904b\u52d5\u516c\u5712166\u865f", "gps_lat": 23.5594487, "gps_lon": 120.422342, "pm2.5": 25.0, "humidity": 79.9, "temperature": 29.727000000000004}, {"deviceId": "74DA38E69B48", "siteName": "\u516b\u5366\u5c71\u5ba4\u5167\u958b\u7a97\u6236\u5076\u723e\u7528\u7a7a\u6c23\u6e05\u975c\u6a5f", "gps_lat": 24.073, "gps_lon": 120.558, "pm2.5": 5.0, "humidity": 47.0, "temperature": 28.209000000000003}, {"deviceId": "74DA38E69B3E", "siteName": "ediccy", "gps_lat": 23.49, "gps_lon": 120.472, "pm2.5": 12.3, "humidity": 71.4, "temperature": 28.641000000000002}, {"deviceId": "74DA38E69B3A", "siteName": "\u4e94\u6a13\u5f8c\u967d\u53f0\uff0c\uff0c\u65b0\u5317\u5e02\u4e09\u91cd\u5340\u529b\u884c\u8def\u4e00\u6bb5178\u5df721\u865f\u4e94\u6a13", "gps_lat": 25.071, "gps_lon": 121.481, "pm2.5": 36.5, "humidity": 63.0, "temperature": 32.644}, {"deviceId": "74DA38E69B38", "siteName": "27/190\u7dad\u65b0\u8def", "gps_lat": 23.49, "gps_lon": 120.458, "pm2.5": 0.0, "humidity": 54.4, "temperature": 27.409000000000002}, {"deviceId": "74DA38E69B36", "siteName": "\u6cbb\u78d0\u3127\u865f", "gps_lat": 25.084, "gps_lon": 121.563, "pm2.5": 9.5, "humidity": 55.4, "temperature": 31.316000000000003}, {"deviceId": "74DA38E69B2E", "siteName": "\u4e0a\u5b89\u516c\u57125\u6a13", "gps_lat": 24.17, "gps_lon": 120.64, "pm2.5": 31.11111111111111, "humidity": 75.77777777777777, "temperature": 29.68444444444445}, {"deviceId": "74DA38E69B24", "siteName": "\u970f", "gps_lat": 23.162, "gps_lon": 120.181, "pm2.5": 20.3, "humidity": 100.0, "temperature": 31.105}, {"deviceId": "74DA38E69B18", "siteName": "\u5609\u9054\u8cc7\u901a\u96fb\u8166_\u91cd\u8996\u7a7a\u6c59_\u95dc\u5fc3\u60a8", "gps_lat": 23.578, "gps_lon": 120.559, "pm2.5": 33.0, "humidity": 78.7, "temperature": 26.424}, {"deviceId": "74DA38E69B14", "siteName": "\u661f\u6cb3\u9e97", "gps_lat": 24.787, "gps_lon": 121.02, "pm2.5": 21.125, "humidity": 100.0, "temperature": 29.697499999999998}, {"deviceId": "74DA38E69B08", "siteName": "17\u8857\u5ba4\u5167", "gps_lat": 24.155, "gps_lon": 120.649, "pm2.5": 7.444444444444445, "humidity": 69.11111111111111, "temperature": 27.786666666666672}, {"deviceId": "74DA38E69AF8", "siteName": "\u56db\u6a13\u7684\u7a7a\u6c23\u76d2\u5b50", "gps_lat": 22.676, "gps_lon": 120.304, "pm2.5": 10.2, "humidity": 57.0, "temperature": 28.505000000000003}, {"deviceId": "74DA38E69AF6", "siteName": "LS house", "gps_lat": 22.676, "gps_lon": 120.297, "pm2.5": 0.0, "humidity": 62.5, "temperature": 26.111}, {"deviceId": "74DA38E69AE2", "siteName": "SC-GS outdoor", "gps_lat": 25.06, "gps_lon": 121.498, "pm2.5": 22.0, "humidity": 69.33333333333333, "temperature": 31.17222222222223}, {"deviceId": "74DA38E2B860", "siteName": "Nantou-13", "gps_lat": 23.927, "gps_lon": 120.66, "pm2.5": 37.3, "humidity": 100.0, "temperature": 27.872000000000003}, {"deviceId": "74DA38E2B846", "siteName": "\u79be\u5eb7\u793e\u5340", "gps_lat": 23.594, "gps_lon": 120.452, "pm2.5": 32.2, "humidity": 90.1, "temperature": 29.360000000000007}, {"deviceId": "74DA38E2B842", "siteName": "Kairbox", "gps_lat": 25.039, "gps_lon": 121.591, "pm2.5": 12.7, "humidity": 100.0, "temperature": 27.820000000000004}, {"deviceId": "74DA38E2B82A", "siteName": "\u8776\u821e\u677e\u6797\u5496\u5561\u9928", "gps_lat": 23.749, "gps_lon": 120.609, "pm2.5": 17.6, "humidity": 100.0, "temperature": 28.172000000000004}, {"deviceId": "74DA38E2B81E", "siteName": " Spring Farm", "gps_lat": 24.466, "gps_lon": 120.728, "pm2.5": 23.0, "humidity": 100.0, "temperature": 25.761000000000003}, {"deviceId": "74DA38E2B778", "siteName": "\u53f0\u92c1\u65b0\u6751", "gps_lat": 22.609901, "gps_lon": 120.311882, "pm2.5": 14.6, "humidity": 100.0, "temperature": 30.916000000000004}, {"deviceId": "74DA38E2B71C", "siteName": "\u718a\u8c93\u5bb6\u5ba2\u5ef3", "gps_lat": 24.983, "gps_lon": 121.446, "pm2.5": 6.0, "humidity": 51.4, "temperature": 26.973000000000003}, {"deviceId": "74DA38E2B714", "siteName": "taichung150", "gps_lat": 24.161, "gps_lon": 120.699, "pm2.5": 25.1, "humidity": 100.0, "temperature": 29.319}, {"deviceId": "74DA38E2B712", "siteName": "taichung149", "gps_lat": 24.126, "gps_lon": 120.667, "pm2.5": 28.22222222222222, "humidity": 100.0, "temperature": 29.76777777777778}, {"deviceId": "74DA38E2B704", "siteName": "\u96f2\u6e21\u5c71", "gps_lat": 23.4, "gps_lon": 120.399, "pm2.5": 14.6, "humidity": 83.4, "temperature": 34.291000000000004}, {"deviceId": "74DA38E2B6EC", "siteName": "\u5927\u90fd\u6ed9\u5e02\u5167", "gps_lat": 23.021, "gps_lon": 120.234, "pm2.5": 0.0, "humidity": 63.6, "temperature": 28.719}, {"deviceId": "74DA38E2B6E8", "siteName": "\u5609\u7fa9\u69b4\u69e4", "gps_lat": 23.473, "gps_lon": 120.422, "pm2.5": 6.0, "humidity": 100.0, "temperature": 28.755555555555556}, {"deviceId": "74DA38E2B6C0", "siteName": "\u6211\u5bb6", "gps_lat": 24.808, "gps_lon": 121.028, "pm2.5": 11.777777777777779, "humidity": 55.111111111111114, "temperature": 28.700000000000003}, {"deviceId": "74DA38E2B6B6", "siteName": "\u53f0\u4e2d\u5e02\u516c\u5bb3\u9632\u6cbb\u5354\u6703", "gps_lat": 24.094, "gps_lon": 120.696, "pm2.5": 23.8, "humidity": 75.0, "temperature": 29.486}, {"deviceId": "74DA38E2B684", "siteName": "natou09", "gps_lat": 23.966, "gps_lon": 120.973, "pm2.5": 15.6, "humidity": 100.0, "temperature": 25.998}, {"deviceId": "74DA38E2B66A", "siteName": "river", "gps_lat": 22.474, "gps_lon": 120.458, "pm2.5": 16.77777777777778, "humidity": 100.0, "temperature": 29.891111111111115}, {"deviceId": "74DA38E2B652", "siteName": "Nantou10", "gps_lat": 23.989, "gps_lon": 120.687, "pm2.5": 16.9, "humidity": 68.0, "temperature": 31.099000000000007}, {"deviceId": "74DA38E2B62A", "siteName": "PM2.5 HSU 10A", "gps_lat": 24.139, "gps_lon": 120.662, "pm2.5": 27.333333333333332, "humidity": 100.0, "temperature": 29.601111111111113}, {"deviceId": "74DA38E2B626", "siteName": "nantou-12", "gps_lat": 23.99, "gps_lon": 120.672, "pm2.5": 27.5, "humidity": 100.0, "temperature": 28.98}, {"deviceId": "74DA38E2B60A", "siteName": "\u53f0\u4e2d\u5e02\u660e\u5fb7\u4e2d\u5b78", "gps_lat": 24.12, "gps_lon": 120.683, "pm2.5": 16.666666666666668, "humidity": 100.0, "temperature": 29.619999999999997}, {"deviceId": "74DA38E2B5EE", "siteName": "\u53f8\u5f92\u51e1\u4e4b\u5bb6(\u5ba4\u5167)", "gps_lat": 22.666, "gps_lon": 120.322, "pm2.5": 4.3, "humidity": 100.0, "temperature": 30.722}, {"deviceId": "74DA38E2B5E4", "siteName": "Boo", "gps_lat": 22.63, "gps_lon": 120.311, "pm2.5": 11.3, "humidity": 77.5, "temperature": 31.055}, {"deviceId": "74DA38E2B5E2", "siteName": "\u7f8e\u8853\u5357\u4e09\u7a7a\u6c23\u7ad9", "gps_lat": 22.653, "gps_lon": 120.282, "pm2.5": 11.2, "humidity": 96.7, "temperature": 27.921000000000003}, {"deviceId": "74DA38E2B5DE", "siteName": "\u53f0\u5317\u5e02\u5357\u6e56\u570b\u5c0f", "gps_lat": 25.069, "gps_lon": 121.606, "pm2.5": 23.4, "humidity": 100.0, "temperature": 29.238000000000007}, {"deviceId": "74DA38E2B5C2", "siteName": "Jhome", "gps_lat": 25.056, "gps_lon": 121.528, "pm2.5": 2.25, "humidity": 46.25, "temperature": 25.93625}, {"deviceId": "74DA38E2B5A8", "siteName": "HSU-2F", "gps_lat": 22.477, "gps_lon": 120.461, "pm2.5": 6.777777777777778, "humidity": 54.888888888888886, "temperature": 31.360000000000007}, {"deviceId": "74DA38E2B590", "siteName": "Airr", "gps_lat": 22.469781, "gps_lon": 120.463523, "pm2.5": 8.9, "humidity": 65.3, "temperature": 30.532999999999998}, {"deviceId": "74DA38E2B586", "siteName": "Ed-chen", "gps_lat": 25.034, "gps_lon": 121.534, "pm2.5": 2.1, "humidity": 65.1, "temperature": 28.444000000000006}, {"deviceId": "74DA38E2B578", "siteName": "wh001", "gps_lat": 22.622, "gps_lon": 120.318, "pm2.5": 16.0, "humidity": 81.1, "temperature": 30.610000000000007}, {"deviceId": "74DA38E2B530", "siteName": "\u7da0\u7bc9\u5c71\u838a", "gps_lat": 23.485, "gps_lon": 120.48, "pm2.5": 7.4, "humidity": 100.0, "temperature": 28.433000000000003}, {"deviceId": "74DA38E2B512", "siteName": "HSU-1F", "gps_lat": 22.477, "gps_lon": 120.461, "pm2.5": 7.5, "humidity": 57.9, "temperature": 27.471999999999998}, {"deviceId": "74DA38E2B50A", "siteName": "Chez Vincent", "gps_lat": 25.041, "gps_lon": 121.507, "pm2.5": 13.4, "humidity": 68.7, "temperature": 28.566000000000003}, {"deviceId": "74DA38E2B502", "siteName": "kashima-3F-wifi", "gps_lat": 24.808, "gps_lon": 120.979, "pm2.5": 2.5, "humidity": 98.1, "temperature": 30.761000000000003}, {"deviceId": "74DA38E2B4FC", "siteName": "tonychou", "gps_lat": 25.017, "gps_lon": 121.53, "pm2.5": 25.5, "humidity": 77.6, "temperature": 27.037}, {"deviceId": "74DA38E2B4D0", "siteName": "myPM2.5_D0", "gps_lat": 22.626, "gps_lon": 120.351, "pm2.5": 1.8, "humidity": 66.4, "temperature": 31.110000000000007}, {"deviceId": "74DA38E2B4BE", "siteName": "ALLG", "gps_lat": 24.991, "gps_lon": 121.278, "pm2.5": 11.7, "humidity": 59.6, "temperature": 30.055}, {"deviceId": "74DA38E2B494", "siteName": "\u914d\u5929\u5bae", "gps_lat": 24.998, "gps_lon": 121.509, "pm2.5": 28.875, "humidity": 99.75, "temperature": 29.50625}, {"deviceId": "74DA38E2B492", "siteName": "Peter_Home", "gps_lat": 24.753, "gps_lon": 121.745, "pm2.5": 9.0, "humidity": 66.44444444444444, "temperature": 30.576666666666668}, {"deviceId": "74DA38C7D652", "siteName": "\u65b0\u7af9\u5e02\u7acb\u95dc\u6771\u570b\u5c0f(2017)", "gps_lat": 24.784, "gps_lon": 121.022, "pm2.5": 22.7, "humidity": 95.2, "temperature": 29.455000000000002}, {"deviceId": "74DA38C7D640", "siteName": "\u65b0\u7af9\u5e02\u7acb\u897f\u9580\u570b\u5c0f(2017)", "gps_lat": 24.802, "gps_lon": 120.959, "pm2.5": 24.555555555555557, "humidity": 100.0, "temperature": 31.425555555555555}, {"deviceId": "74DA38C7D62A", "siteName": "\u65b0\u7af9\u5e02\u7acb\u4e09\u6c11\u570b\u5c0f(2017)", "gps_lat": 24.813, "gps_lon": 120.981, "pm2.5": 3.4, "humidity": 100.0, "temperature": 29.319}, {"deviceId": "74DA38C7D616", "siteName": "\u65b0\u7af9\u5e02\u7acb\u57f9\u82f1\u570b\u4e2d(2017)", "gps_lat": 24.794, "gps_lon": 120.978, "pm2.5": 15.777777777777779, "humidity": 100.0, "temperature": 30.752222222222226}, {"deviceId": "74DA38C7D60A", "siteName": "\u65b0\u7af9\u5e02\u7acb\u5167\u6e56\u570b\u5c0f(2017)", "gps_lat": 24.741, "gps_lon": 120.906, "pm2.5": 0.0, "humidity": 100.0, "temperature": 31.277000000000005}, {"deviceId": "74DA38C7D606", "siteName": "\u65b0\u7af9\u5e02\u7acb\u820a\u793e\u570b\u5c0f(2017)", "gps_lat": 24.822, "gps_lon": 120.973, "pm2.5": 24.6, "humidity": 89.2, "temperature": 30.916000000000004}, {"deviceId": "74DA38C7D58C", "siteName": "\u65b0\u7af9\u5e02\u7acb\u5357\u83ef\u570b\u4e2d(2017)", "gps_lat": 24.843, "gps_lon": 120.927, "pm2.5": 19.88888888888889, "humidity": 100.0, "temperature": 29.65666666666667}, {"deviceId": "74DA38C7D510", "siteName": "\u65b0\u7af9\u5e02\u7acb\u5927\u5e84\u570b\u5c0f(2017)", "gps_lat": 24.789, "gps_lon": 120.927, "pm2.5": 21.454545454545453, "humidity": 100.0, "temperature": 31.420909090909095}, {"deviceId": "74DA38C7D4B4", "siteName": "\u96f2\u6797\u7e23\u7acb\u5927\u65b0\u570b\u5c0f(2017)", "gps_lat": 23.605, "gps_lon": 120.459, "pm2.5": 16.4, "humidity": 66.5, "temperature": 27.148000000000003}, {"deviceId": "74DA38C7D478", "siteName": "\u6968\u6968\u7684\u5bb6", "gps_lat": 22.615, "gps_lon": 120.347, "pm2.5": 10.7, "humidity": 78.2, "temperature": 30.736}, {"deviceId": "74DA38C7D472", "siteName": "\u9752\u5929\u8a08\u756b2.0 - \u5f97\u5b89\u5b78\u5712", "gps_lat": 24.638, "gps_lon": 121.75, "pm2.5": 1.7, "humidity": 56.6, "temperature": 29.0}, {"deviceId": "74DA38C7D46C", "siteName": "\u5609\u7fa9\u5e02\u7acb\u6587\u96c5\u570b\u5c0f(2017)", "gps_lat": 23.483, "gps_lon": 120.487, "pm2.5": 12.777777777777779, "humidity": 100.0, "temperature": 27.801111111111112}, {"deviceId": "74DA38C7D438", "siteName": "\u5d01\u9802\u711a\u5316\u5ee0\u5728\u5317\u5317\u6771\u65b92.7km", "gps_lat": 22.477, "gps_lon": 120.487, "pm2.5": 3.2, "humidity": 100.0, "temperature": 27.285000000000004}, {"deviceId": "74DA38C7D3C8", "siteName": "taichung133", "gps_lat": 24.201, "gps_lon": 120.708, "pm2.5": 31.555555555555557, "humidity": 100.0, "temperature": 29.672222222222224}, {"deviceId": "74DA38C7D1FA", "siteName": "\u96d9\u5341\u8def-\u80b2\u624d\u5317\u8def\u53e3", "gps_lat": 24.152, "gps_lon": 120.687, "pm2.5": 31.4, "humidity": 100.0, "temperature": 29.269}, {"deviceId": "74DA38C7D0F4", "siteName": "yunlin03", "gps_lat": 22.779, "gps_lon": 121.087, "pm2.5": 13.5, "humidity": 100.0, "temperature": 29.73}, {"deviceId": "74DA38C7D00C", "siteName": "\u6e2c\u7ad9w00", "gps_lat": 24.954, "gps_lon": 121.347, "pm2.5": 31.9, "humidity": 100.0, "temperature": 29.466000000000008}, {"deviceId": "74DA38C7CF96", "siteName": "aa_home", "gps_lat": 24.776, "gps_lon": 121.018, "pm2.5": 0.8, "humidity": 54.0, "temperature": 26.21}, {"deviceId": "74DA38C7CF4C", "siteName": "\u65d7\u5c71\u4e94\u798f\u7684\u5bb6", "gps_lat": 22.946, "gps_lon": 120.51, "pm2.5": 1.5, "humidity": 58.1, "temperature": 27.237000000000002}, {"deviceId": "74DA38C7CF40", "siteName": "HK1621", "gps_lat": 24.174, "gps_lon": 120.692, "pm2.5": 26.2, "humidity": 100.0, "temperature": 29.880000000000003}, {"deviceId": "74DA38C7CECA", "siteName": "taichung137", "gps_lat": 24.16, "gps_lon": 120.664, "pm2.5": 19.555555555555557, "humidity": 100.0, "temperature": 29.120000000000005}, {"deviceId": "74DA38C7CEAC", "siteName": "\u5609\u7fa9\u5e02\u7acb\u8208\u5b89\u570b\u5c0f(2017)", "gps_lat": 23.459, "gps_lon": 120.455, "pm2.5": 6.9, "humidity": 100.0, "temperature": 28.577000000000005}, {"deviceId": "74DA38C7CEA6", "siteName": "\u5609\u7fa9\u5e02\u7acb\u862d\u6f6d\u570b\u5c0f(2017)", "gps_lat": 23.474, "gps_lon": 120.47, "pm2.5": 9.3, "humidity": 86.6, "temperature": 30.416000000000007}, {"deviceId": "74DA38B05436", "siteName": "\u53f0\u5927\u91ab\u966212", "gps_lat": 25.044, "gps_lon": 121.518, "pm2.5": 20.0, "humidity": 100.0, "temperature": 27.734}, {"deviceId": "74DA38B05430", "siteName": "\u53f0\u5927\u91ab\u96626", "gps_lat": 25.041, "gps_lon": 121.517, "pm2.5": 17.3, "humidity": 88.2, "temperature": 29.094}, {"deviceId": "74DA38B053F8", "siteName": "\u65b0\u7af9\u5e02\u7acb\u7af9\u5149\u570b\u4e2d(2017)", "gps_lat": 24.807, "gps_lon": 120.955, "pm2.5": 29.333333333333332, "humidity": 100.0, "temperature": 30.113333333333337}, {"deviceId": "74DA38B053F4", "siteName": "\u65b0\u7af9\u5e02\u7acb\u6210\u5fb7\u9ad8\u4e2d\u9644\u8a2d\u570b\u4e2d(2017)", "gps_lat": 24.79, "gps_lon": 120.953, "pm2.5": 1.1111111111111112, "humidity": 100.0, "temperature": 32.68777777777778}, {"deviceId": "74DA38B053E4", "siteName": "\u65b0\u7af9\u5e02\u7acb\u5efa\u529f\u9ad8\u4e2d\u9644\u8a2d\u570b\u4e2d(2017)", "gps_lat": 24.797, "gps_lon": 121.001, "pm2.5": 17.1, "humidity": 100.0, "temperature": 28.569000000000006}, {"deviceId": "74DA38B053E0", "siteName": "\u65b0\u7af9\u5e02\u5099\u54c1(2017)", "gps_lat": 25.062, "gps_lon": 121.451, "pm2.5": 12.3, "humidity": 85.2, "temperature": 30.81600000000001}, {"deviceId": "74DA38B053CA", "siteName": "\u5609\u7fa9\u5e02\u5099\u54c1(2017)", "gps_lat": 24.948, "gps_lon": 121.206, "pm2.5": 29.11111111111111, "humidity": 79.55555555555556, "temperature": 30.110000000000007}, {"deviceId": "74DA38B053B2", "siteName": "\u5609\u7fa9\u5e02\u7acb\u5927\u696d\u570b\u4e2d(2017)", "gps_lat": 23.462, "gps_lon": 120.454, "pm2.5": 0.0, "humidity": 100.0, "temperature": 27.058999999999997}, {"deviceId": "74DA38B053AE", "siteName": "\u5609\u7fa9\u79c1\u7acb\u5927\u540c\u9ad8\u7d1a\u5546\u696d\u8077\u696d\u5b78\u6821(2017)", "gps_lat": 24.304, "gps_lon": 120.73, "pm2.5": 31.0, "humidity": 100.0, "temperature": 25.622500000000002}, {"deviceId": "74DA38B0539E", "siteName": "\u5609\u7fa9\u79c1\u7acb\u6771\u5433\u9ad8\u7d1a\u5de5\u696d\u5bb6\u4e8b\u8077\u696d\u5b78\u6821(2017)", "gps_lat": 23.581, "gps_lon": 120.559, "pm2.5": 10.6, "humidity": 100.0, "temperature": 25.635}, {"deviceId": "74DA38B0538A", "siteName": "\u795e\u5947\u5bf6\u8c9d-\u9054\u8299\u59ae\u4e0a\u9762", "gps_lat": 25.041, "gps_lon": 121.556, "pm2.5": 0.0, "humidity": 100.0, "temperature": 28.619999999999997}, {"deviceId": "74DA38B05374", "siteName": "Core", "gps_lat": 24.711, "gps_lon": 120.916, "pm2.5": 13.1, "humidity": 63.0, "temperature": 24.922}, {"deviceId": "74DA38B05344", "siteName": "cht32", "gps_lat": 24.138, "gps_lon": 120.704, "pm2.5": 29.6, "humidity": 99.2, "temperature": 28.93}, {"deviceId": "74DA38B0533C", "siteName": "Taoyuan02(2017)", "gps_lat": 24.891, "gps_lon": 121.169, "pm2.5": 0, "humidity": 0, "temperature": 0}, {"deviceId": "74DA38B05304", "siteName": "\u632f\u83ef\u516c\u5712", "gps_lat": 25.115, "gps_lon": 121.518, "pm2.5": 19.3, "humidity": 100.0, "temperature": 30.969000000000005}, {"deviceId": "74DA38B05286", "siteName": "\u795e\u5947\u5bf6\u8c9d-\u5225\u518d\u65b7\u4e86", "gps_lat": 25.041, "gps_lon": 121.556, "pm2.5": 0.2, "humidity": 100.0, "temperature": 28.691000000000003}, {"deviceId": "74DA38B0527C", "siteName": "\u6843\u5712\u5e02\u74b0\u6559\u5b78\u6703\u5b9c\u862d\u7ad9", "gps_lat": 24.669, "gps_lon": 121.721, "pm2.5": 15.6, "humidity": 100.0, "temperature": 31.708000000000006}, {"deviceId": "74DA38B0526A", "siteName": "4\u6a13", "gps_lat": 24.958, "gps_lon": 121.497, "pm2.5": 14.8, "humidity": 77.1, "temperature": 24.897000000000002}, {"deviceId": "74DA38B05262", "siteName": "\u53f0\u5927\u91ab\u96628", "gps_lat": 25.042, "gps_lon": 121.516, "pm2.5": 22.444444444444443, "humidity": 100.0, "temperature": 28.647777777777776}, {"deviceId": "74DA38B05260", "siteName": "\u53f0\u5927\u91ab\u96624", "gps_lat": 25.041, "gps_lon": 121.518, "pm2.5": 10.4, "humidity": 97.9, "temperature": 28.802000000000003}, {"deviceId": "74DA38B05248", "siteName": "Taoyuan06(2017)", "gps_lat": 24.973, "gps_lon": 121.097, "pm2.5": 30.0, "humidity": 82.63636363636364, "temperature": 31.795454545454547}, {"deviceId": "74DA38B05240", "siteName": "airsong", "gps_lat": 24.204, "gps_lon": 120.561, "pm2.5": 16.2, "humidity": 100.0, "temperature": 27.846000000000004}, {"deviceId": "74DA38B05216", "siteName": "\u53f0\u5927\u91ab\u96625", "gps_lat": 25.04, "gps_lon": 121.517, "pm2.5": 21.77777777777778, "humidity": 100.0, "temperature": 28.65666666666667}, {"deviceId": "74DA38B05208", "siteName": "Llama3", "gps_lat": 25.064, "gps_lon": 121.539, "pm2.5": 20.181818181818183, "humidity": 66.63636363636364, "temperature": 27.973636363636366}, {"deviceId": "74DA38B051FA", "siteName": "\u4fe1\u7fa9\u8857", "gps_lat": 23.598, "gps_lon": 120.458, "pm2.5": 18.375, "humidity": 100.0, "temperature": 29.009999999999998}, {"deviceId": "74DA38B051D4", "siteName": "\u9060\u96c4\u4e4b\u661f6", "gps_lat": 24.268, "gps_lon": 120.537, "pm2.5": 8.0, "humidity": 69.11111111111111, "temperature": 29.12555555555556}, {"deviceId": "74DA38B0519E", "siteName": "\u5e02\u653f\u4e2d\u5fc3(\u6c38\u83ef\u8def)_4G", "gps_lat": 22.989, "gps_lon": 120.184, "pm2.5": 0.1, "humidity": 100.0, "temperature": 29.997000000000003}, {"deviceId": "74DA38B05184", "siteName": "Yoan \u5ba4\u5167", "gps_lat": 24.143, "gps_lon": 120.649, "pm2.5": 10.8, "humidity": 57.2, "temperature": 28.783000000000005}, {"deviceId": "74DA38B0517E", "siteName": "\u5927\u58a9\u4e94\u8857\u5927\u82f1\u897f\u4e00\u8857", "gps_lat": 24.141, "gps_lon": 120.648, "pm2.5": 0.2727272727272727, "humidity": 58.09090909090909, "temperature": 28.540000000000006}, {"deviceId": "74DA38B0511C", "siteName": "\u53f0\u5927\u91ab\u96621", "gps_lat": 25.041, "gps_lon": 121.519, "pm2.5": 3.5, "humidity": 81.2, "temperature": 29.541000000000004}, {"deviceId": "74DA38B05110", "siteName": "\u7d2b\u97fb\u7b8f\u6a02\u5718", "gps_lat": 24.431, "gps_lon": 118.32, "pm2.5": 0.0, "humidity": 100.0, "temperature": 27.122000000000003}, {"deviceId": "74DA38B050F4", "siteName": "\u570b\u969b\u4e00\u8857", "gps_lat": 24.941, "gps_lon": 121.37, "pm2.5": 31.1, "humidity": 100.0, "temperature": 29.969}, {"deviceId": "74DA38B050C2", "siteName": "\u5167\u7063\u5cf4", "gps_lat": 24.787, "gps_lon": 121.021, "pm2.5": 26.6, "humidity": 100.0, "temperature": 29.536}, {"deviceId": "74DA38B050C0", "siteName": "cshs", "gps_lat": 23.763, "gps_lon": 120.689, "pm2.5": 24.4, "humidity": 100.0, "temperature": 28.066000000000003}, {"deviceId": "74DA38B0509C", "siteName": "\u4ec1\u7fa9\u8783\u87f9", "gps_lat": 25.08, "gps_lon": 121.498, "pm2.5": 22.555555555555557, "humidity": 99.66666666666667, "temperature": 29.91}, {"deviceId": "74DA38B05074", "siteName": "\u53f0\u5927\u91ab\u96623", "gps_lat": 25.041, "gps_lon": 121.52, "pm2.5": 4.3, "humidity": 100.0, "temperature": 29.630000000000003},